{"社会面_车辆卡口":[],"公安_其他":[],"公安_车辆卡口":[{"type":"device","apeId":"device_1597","deviceName":"0壹_rxsb_东港路525号","latitude":"30.909063","longitude":"120.667097"},{"type":"device","apeId":"device_1598","deviceName":"0壹_rxsb_中河桥东岸","latitude":"30.909053","longitude":"120.656857"},{"type":"device","apeId":"device_1599","deviceName":"0壹_rxsb_西白漾桥1","latitude":"30.905032","longitude":"120.650887"},{"type":"device","apeId":"device_1600","deviceName":"0壹_rxsb_西白漾桥3","latitude":"30.905131","longitude":"120.650849"},{"type":"device","apeId":"device_1601","deviceName":"G524国道、高速公路出入口西北角","latitude":"30.915458","longitude":"120.675314"},{"type":"device","apeId":"device_1602","deviceName":"G524国道如意路口西南角","latitude":"30.918205","longitude":"120.675228"},{"type":"device","apeId":"device_1603","deviceName":"如意路、碧波花园门口西北角","latitude":"30.916424","longitude":"120.663297"},{"type":"device","apeId":"device_1604","deviceName":"如意路、丁香花园门口路南侧","latitude":"30.915705","longitude":"120.660251"},{"type":"device","apeId":"device_1605","deviceName":"蚕花路、水澈弄东南角","latitude":"30.905307","longitude":"120.660113"},{"type":"device","apeId":"device_1606","deviceName":"前跃村道冰川纺织东侧三叉路口处","latitude":"30.908152","longitude":"120.687791"},{"type":"device","apeId":"device_1607","deviceName":"东方路、盛泽小学升明校区门口西北角","latitude":"30.904515","longitude":"120.665625"},{"type":"device","apeId":"device_1608","deviceName":"东方路、五龙路路口西南角","latitude":"30.909397","longitude":"120.662407"},{"type":"device","apeId":"device_1609","deviceName":"如意路、红安路路口东南角","latitude":"30.917569","longitude":"120.669181"},{"type":"device","apeId":"device_1610","deviceName":"G524国道、东港路路口东北角","latitude":"30.908227","longitude":"120.676065"},{"type":"device","apeId":"device_1611","deviceName":"东港路、镇东新村门口西北角","latitude":"30.909399","longitude":"120.668559"},{"type":"device","apeId":"device_1612","deviceName":"G524国道、红安路路口东北角","latitude":"30.926762","longitude":"120.667454"},{"type":"device","apeId":"device_1613","deviceName":"东方路、东港路路口西北角","latitude":"30.909193","longitude":"120.664681"},{"type":"device","apeId":"device_1614","deviceName":"G524国道、胜天村路口东南角","latitude":"30.926938","longitude":"120.651185"},{"type":"device","apeId":"device_1615","deviceName":"G524国道、十八加油站东北角","latitude":"30.928556","longitude":"120.648851"},{"type":"device","apeId":"device_1616","deviceName":"舜新路、花园街路口","latitude":"30.903174","longitude":"120.655455"},{"type":"device","apeId":"device_1617","deviceName":"蚕花路、敦仁里路口东南角","latitude":"30.904933","longitude":"120.659886"},{"type":"device","apeId":"device_1618","deviceName":"舜新路、市场路三叉路口东北角","latitude":"30.901661","longitude":"120.654865"},{"type":"device","apeId":"device_1619","deviceName":"舜新路、东方广场农业银行门口","latitude":"30.905406","longitude":"120.655755"},{"type":"device","apeId":"device_1620","deviceName":"舜湖路、北斗弄口处","latitude":"30.904279","longitude":"120.657997"},{"type":"device","apeId":"device_1621","deviceName":"舜湖路、北观音弄南口中国黄金对面","latitude":"30.904891","longitude":"120.652569"},{"type":"device","apeId":"device_1622","deviceName":"东方广场、工商银行对面花坛","latitude":"30.904655","longitude":"120.656002"},{"type":"device","apeId":"device_1623","deviceName":"东方路、舜新路路口东南角","latitude":"30.909225","longitude":"120.655755"},{"type":"device","apeId":"device_1624","deviceName":"蚕花路、中心小学西门桥西路口西北角","latitude":"30.904724","longitude":"120.662407"},{"type":"device","apeId":"device_1625","deviceName":"舜新路、银行街路口西南角","latitude":"30.902874","longitude":"120.655091"},{"type":"device","apeId":"device_1626","deviceName":"胜天村北角三岔口","latitude":"30.944866","longitude":"120.654124"},{"type":"device","apeId":"device_1627","deviceName":"许家弄人民商场后门三叉路口处","latitude":"30.905141","longitude":"120.654729"},{"type":"device","apeId":"device_1628","deviceName":"东方路、舜新路路口西北角","latitude":"30.909354","longitude":"120.655444"},{"type":"device","apeId":"device_1629","deviceName":"盛虹酒店周边、盛虹国际岗亭","latitude":"30.899531","longitude":"120.655961"},{"type":"device","apeId":"device_1630","deviceName":"舜湖路、蚕花路路口西北角","latitude":"30.903766","longitude":"120.662431"},{"type":"device","apeId":"device_1631","deviceName":"花园街、东端底西北角","latitude":"30.903002","longitude":"120.656978"},{"type":"device","apeId":"device_1632","deviceName":"花园街、潘家弄南端出口处东南角","latitude":"30.903131","longitude":"120.658405"},{"type":"device","apeId":"device_1633","deviceName":"北斗弄、秀才浜南侧","latitude":"30.903399","longitude":"120.657161"},{"type":"device","apeId":"device_1634","deviceName":"华阳街与板箱弄口南侧拐角处西南角","latitude":"30.901189","longitude":"120.656271"},{"type":"device","apeId":"device_1635","deviceName":"红木浜东端底南侧","latitude":"30.901619","longitude":"120.658509"},{"type":"device","apeId":"device_1636","deviceName":"东方路、立新大厦门口东南角","latitude":"30.909236","longitude":"120.654768"},{"type":"device","apeId":"device_1637","deviceName":"市场路、神鹰酒店门口路南侧","latitude":"30.901371","longitude":"120.653212"},{"type":"device","apeId":"device_1638","deviceName":"舜湖路、小庙港鲍家弄口西南角","latitude":"30.904054","longitude":"120.659575"},{"type":"device","apeId":"device_1639","deviceName":"舜新路、东方广场农业银行门口南侧","latitude":"30.904955","longitude":"120.655766"},{"type":"device","apeId":"device_1640","deviceName":"舜湖路、人民商城西路南侧","latitude":"30.904558","longitude":"120.654049"},{"type":"device","apeId":"device_1641","deviceName":"舜湖路、新开弄口东北角","latitude":"30.904193","longitude":"120.658663"},{"type":"device","apeId":"device_1642","deviceName":"舜湖路、胜高面店东保盛桥东南角","latitude":"30.903847","longitude":"120.661011"},{"type":"device","apeId":"device_1643","deviceName":"舜湖路、二实小西侧花坛","latitude":"30.905148","longitude":"120.651839"},{"type":"device","apeId":"device_1644","deviceName":"舜湖路、东方广场岗亭东北角","latitude":"30.904451","longitude":"120.656495"},{"type":"device","apeId":"device_1645","deviceName":"许家弄人民商场后门西侧","latitude":"30.905009","longitude":"120.653911"},{"type":"device","apeId":"device_1646","deviceName":"舜新路、雷老三面店路口东南角","latitude":"30.899731","longitude":"120.655015"},{"type":"device","apeId":"device_1647","deviceName":"舜新路、星海浪路口东南角","latitude":"30.900211","longitude":"120.654914"},{"type":"device","apeId":"device_1648","deviceName":"舜新路、金银岛路口西北角","latitude":"30.908495","longitude":"120.655852"},{"type":"device","apeId":"device_1649","deviceName":"舜新路、锦源假日酒店门口路西侧","latitude":"30.906811","longitude":"120.655691"},{"type":"device","apeId":"device_1650","deviceName":"舜新路、银行街国美电器西南角","latitude":"30.902671","longitude":"120.655004"},{"type":"device","apeId":"device_1651","deviceName":"银行街、西杨家弄北口","latitude":"30.903131","longitude":"120.654736"},{"type":"device","apeId":"device_1652","deviceName":"银行街、退圆里弄北口东南角","latitude":"30.904483","longitude":"120.653438"},{"type":"device","apeId":"device_1653","deviceName":"银行街、怀原路北口","latitude":"30.902841","longitude":"120.653245"},{"type":"device","apeId":"device_1654","deviceName":"舜新中路、舜湖中路","latitude":"30.904054","longitude":"120.655648"},{"type":"device","apeId":"device_1655","deviceName":"舜新路、华生厂入口西北角","latitude":"30.900492","longitude":"120.654768"},{"type":"device","apeId":"device_1656","deviceName":"舜新路、华阳街路西侧","latitude":"30.901296","longitude":"120.654757"},{"type":"device","apeId":"device_1657","deviceName":"北观音弄大润发地下停车场出口处西南角","latitude":"30.906651","longitude":"120.653363"},{"type":"device","apeId":"device_1658","deviceName":"东方路、海阔天空路口","latitude":"30.909171","longitude":"120.653727"},{"type":"device","apeId":"device_1659","deviceName":"环湖路仲英广场西入口","latitude":"30.906489","longitude":"120.650487"},{"type":"device","apeId":"device_1660","deviceName":"舜湖路、平桥葡萄园西南角","latitude":"30.903911","longitude":"120.660326"},{"type":"device","apeId":"device_1661","deviceName":"如意路、新联小区门口","latitude":"30.915036","longitude":"120.654853"},{"type":"device","apeId":"device_1662","deviceName":"朝阳路、朝阳小区口朝东","latitude":"30.898685","longitude":"120.658599"},{"type":"device","apeId":"device_1663","deviceName":"朝阳路、朝阳小区口朝北","latitude":"30.898683","longitude":"120.658574"},{"type":"device","apeId":"device_1664","deviceName":"石匠湾水厂小区小路内","latitude":"30.906449","longitude":"120.651413"},{"type":"device","apeId":"device_1665","deviceName":"红安路、嘉和小区路口处","latitude":"30.911505","longitude":"120.670767"},{"type":"device","apeId":"device_1666","deviceName":"华生厂内十字路口","latitude":"30.901247","longitude":"120.654732"},{"type":"device","apeId":"device_1667","deviceName":"红安路、盛泽一中门口北侧","latitude":"30.919257","longitude":"120.668411"},{"type":"device","apeId":"device_1668","deviceName":"红安路金球商区42号联华超市北侧","latitude":"30.925475","longitude":"120.667244"},{"type":"device","apeId":"device_1669","deviceName":"红安路、东港村宏达厂北侧小路内","latitude":"30.913464","longitude":"120.671713"},{"type":"device","apeId":"device_1670","deviceName":"东港村、鸭头坝189号门前电线杆上","latitude":"30.910431","longitude":"120.669835"},{"type":"device","apeId":"device_1671","deviceName":"盛虹村桥北社区路口","latitude":"30.913471","longitude":"120.655768"},{"type":"device","apeId":"device_1672","deviceName":"红安路、广宇纺织北十字路口东南角","latitude":"30.928268","longitude":"120.667488"},{"type":"device","apeId":"device_1673","deviceName":"东方路、新华新村路口","latitude":"30.905698","longitude":"120.665516"},{"type":"device","apeId":"device_1674","deviceName":"广电站南侧小路内","latitude":"30.907627","longitude":"120.664935"},{"type":"device","apeId":"device_1675","deviceName":"广电站北侧新民宿舍门口","latitude":"30.908397","longitude":"120.664897"},{"type":"device","apeId":"device_1676","deviceName":"镇政府北侧农行公房门口","latitude":"30.910102","longitude":"120.666315"},{"type":"device","apeId":"device_1677","deviceName":"东方路、戴夫桥东侧路口","latitude":"30.909141","longitude":"120.663305"},{"type":"device","apeId":"device_1678","deviceName":"聚汇装饰城南门","latitude":"30.917141","longitude":"120.675686"},{"type":"device","apeId":"device_1679","deviceName":"东港村、鸭头坝北底端村道三叉口","latitude":"30.912589","longitude":"120.667573"},{"type":"device","apeId":"device_1680","deviceName":"东港村、望祥桥南堍","latitude":"30.916552","longitude":"120.667061"},{"type":"device","apeId":"device_1681","deviceName":"东港村、环保局西侧小路内三叉口","latitude":"30.917773","longitude":"120.665838"},{"type":"device","apeId":"device_1682","deviceName":"胜天村委会北侧","latitude":"30.928617","longitude":"120.655665"},{"type":"device","apeId":"device_1683","deviceName":"前跃村、英昌纺织北侧三叉路口","latitude":"30.905456","longitude":"120.689782"},{"type":"device","apeId":"device_1684","deviceName":"前跃村、农贸市场路口","latitude":"30.912844","longitude":"120.688909"},{"type":"device","apeId":"device_1685","deviceName":"东港村可以小学南门对面","latitude":"30.905198","longitude":"120.679873"},{"type":"device","apeId":"device_1686","deviceName":"鼎方小学门口三叉路口","latitude":"30.940575","longitude":"120.673941"},{"type":"device","apeId":"device_1687","deviceName":"幸福村、世纪华联超市十字路口","latitude":"30.935283","longitude":"120.695799"},{"type":"device","apeId":"device_1688","deviceName":"幸福村、小港华兴厂门口","latitude":"30.932583","longitude":"120.684638"},{"type":"device","apeId":"device_1689","deviceName":"幸福村、东吴纺织厂三叉路口西侧","latitude":"30.927548","longitude":"120.699206"},{"type":"device","apeId":"device_1690","deviceName":"东港村、交警队对面公园内","latitude":"30.908452","longitude":"120.674413"},{"type":"device","apeId":"device_1691","deviceName":"北王小学门口西侧","latitude":"30.917784","longitude":"120.694614"},{"type":"device","apeId":"device_1692","deviceName":"鼎方小学门前电线杆上","latitude":"30.940666","longitude":"120.673977"},{"type":"device","apeId":"device_1693","deviceName":"鼎方幼儿园南侧","latitude":"30.943074","longitude":"120.667704"},{"type":"device","apeId":"device_1694","deviceName":"舜湖路、蚕花路路口东南角","latitude":"30.904072","longitude":"120.662517"},{"type":"device","apeId":"device_1695","deviceName":"华阳街与板箱弄交叉口","latitude":"30.901517","longitude":"120.656083"},{"type":"device","apeId":"device_1696","deviceName":"板箱弄东端","latitude":"30.901825","longitude":"120.657548"},{"type":"device","apeId":"device_1697","deviceName":"茭白荡北端","latitude":"30.901879","longitude":"120.655438"},{"type":"device","apeId":"device_1698","deviceName":"牧童湾(灯光球场门口)","latitude":"30.902438","longitude":"120.656722"},{"type":"device","apeId":"device_1699","deviceName":"花园街殷家弄南端","latitude":"30.902934","longitude":"120.656312"},{"type":"device","apeId":"device_1700","deviceName":"中浜东侧河边","latitude":"30.901637","longitude":"120.658464"},{"type":"device","apeId":"device_1701","deviceName":"花园街十字弄北端","latitude":"30.902991","longitude":"120.657638"},{"type":"device","apeId":"device_1702","deviceName":"朝阳路桃园小区门口","latitude":"30.898669","longitude":"120.659083"},{"type":"device","apeId":"device_1703","deviceName":"花园街、鲍家弄小商品市场东顶篷上","latitude":"30.902894","longitude":"120.659485"},{"type":"device","apeId":"device_1704","deviceName":"目澜路、绿杨路路口东南角","latitude":"30.894611","longitude":"120.658561"},{"type":"device","apeId":"device_1705","deviceName":"目澜洲公园北侧弄堂内","latitude":"30.898827","longitude":"120.653771"},{"type":"device","apeId":"device_1706","deviceName":"目澜社区老年人活动中心东侧","latitude":"30.899947","longitude":"120.653084"},{"type":"device","apeId":"device_1707","deviceName":"东港路、辽吴公房门口对面","latitude":"30.904369","longitude":"120.673748"},{"type":"device","apeId":"device_1708","deviceName":"花园街东底端","latitude":"30.903089","longitude":"120.657193"},{"type":"device","apeId":"device_1709","deviceName":"东方路、蚕花公寓大门对面","latitude":"30.909296","longitude":"120.659534"},{"type":"device","apeId":"device_1710","deviceName":"蚕花公寓内9幢西南角","latitude":"30.907654","longitude":"120.659287"},{"type":"device","apeId":"device_1711","deviceName":"五龙路、新民新村门口","latitude":"30.907292","longitude":"120.661948"},{"type":"device","apeId":"device_1712","deviceName":"姚家坝桥东堍弄堂内墙壁上","latitude":"30.901422","longitude":"120.651905"},{"type":"device","apeId":"device_1713","deviceName":"银行街柳家弄交叉口","latitude":"30.903134","longitude":"120.654028"},{"type":"device","apeId":"device_1714","deviceName":"新世纪公寓东村路口","latitude":"30.899986","longitude":"120.655872"},{"type":"device","apeId":"device_1715","deviceName":"沈新街、新世纪公寓后门","latitude":"30.900836","longitude":"120.657087"},{"type":"device","apeId":"device_1716","deviceName":"小庙港小区北端路口墙壁上","latitude":"30.905437","longitude":"120.660575"},{"type":"device","apeId":"device_1717","deviceName":"银行街与西新街角1叉口","latitude":"30.903229","longitude":"120.653047"},{"type":"device","apeId":"device_1718","deviceName":"银行街与西新街角2叉口","latitude":"30.903172","longitude":"120.653037"},{"type":"device","apeId":"device_1719","deviceName":"盛虹酒店后停车场内","latitude":"30.900297","longitude":"120.656469"},{"type":"device","apeId":"device_1720","deviceName":"中和桥东岸19号河边","latitude":"30.907879","longitude":"120.658853"},{"type":"device","apeId":"device_1721","deviceName":"北仲家弄友谊中学门口北侧","latitude":"30.906351","longitude":"120.657469"},{"type":"device","apeId":"device_1722","deviceName":"酱油街南端路口","latitude":"30.906405","longitude":"120.657444"},{"type":"device","apeId":"device_1723","deviceName":"北仲家弄北端三岔口东侧","latitude":"30.906373","longitude":"120.657727"},{"type":"device","apeId":"device_1724","deviceName":"影剧弄正章干洗边蒸汽管上","latitude":"30.906891","longitude":"120.657255"},{"type":"device","apeId":"device_1725","deviceName":"影剧弄、酱油街交叉口","latitude":"30.906926","longitude":"120.657367"},{"type":"device","apeId":"device_1726","deviceName":"酱油街、狭港扇小桥边","latitude":"30.908111","longitude":"120.657199"},{"type":"device","apeId":"device_1727","deviceName":"水澈弄太平社区门口","latitude":"30.905439","longitude":"120.658487"},{"type":"device","apeId":"device_1728","deviceName":"中和桥西岸教堂墙壁上","latitude":"30.905431","longitude":"120.659589"},{"type":"device","apeId":"device_1729","deviceName":"水澈弄、卜家弄口东侧桥边","latitude":"30.905428","longitude":"120.658866"},{"type":"device","apeId":"device_1730","deviceName":"阳春弄蚕花公寓后门处朝东","latitude":"30.906377","longitude":"120.659887"},{"type":"device","apeId":"device_1731","deviceName":"阳春弄蚕花公寓后门处朝南","latitude":"30.905638","longitude":"120.663943"},{"type":"device","apeId":"device_1732","deviceName":"东菜场东港西岸桥西堍","latitude":"30.904289","longitude":"120.663553"},{"type":"device","apeId":"device_1733","deviceName":"东港西岸新民新村后门","latitude":"30.907654","longitude":"120.663343"},{"type":"device","apeId":"device_1734","deviceName":"如意新村一区后门北桥南堍","latitude":"30.912599","longitude":"120.659539"},{"type":"device","apeId":"device_1735","deviceName":"如意新村一区15号门前电线杆上","latitude":"30.910895","longitude":"120.658054"},{"type":"device","apeId":"device_1736","deviceName":"盛泽镇红安南路（多唻咪）","latitude":"30.913121","longitude":"120.670282"},{"type":"device","apeId":"device_1737","deviceName":"盛泽镇绿阳路200号友谊中心幼儿园","latitude":"30.897742","longitude":"120.658303"},{"type":"device","apeId":"device_1738","deviceName":"盛泽镇镇东新村小区镇东分园","latitude":"30.905352","longitude":"120.672514"},{"type":"device","apeId":"device_1739","deviceName":"镜湖公园停车场1","latitude":"30.918291","longitude":"120.670991"},{"type":"device","apeId":"device_1740","deviceName":"盛泽镇新雅花园3幢（小太阳）","latitude":"30.896138","longitude":"120.679881"},{"type":"device","apeId":"device_1741","deviceName":"盛泽镇胜天村红安路88号世纪阳光","latitude":"30.928011","longitude":"120.670378"},{"type":"device","apeId":"device_1742","deviceName":"盛泽镇新华新村边（心语）","latitude":"30.905094","longitude":"120.665829"},{"type":"device","apeId":"device_1743","deviceName":"盛泽镇胜天村红安路89号（小童星）","latitude":"30.925511","longitude":"120.671054"},{"type":"device","apeId":"device_1744","deviceName":"盛泽镇胜天村谢天港胜天幼儿园","latitude":"30.931238","longitude":"120.656379"},{"type":"device","apeId":"device_1745","deviceName":"盛泽镇群铁村8组（四海）","latitude":"30.899043","longitude":"120.701739"},{"type":"device","apeId":"device_1746","deviceName":"盛泽镇东港村盛家港78号（思进）","latitude":"30.920641","longitude":"120.661924"},{"type":"device","apeId":"device_1747","deviceName":"盛泽镇东方南路（升明)","latitude":"30.904721","longitude":"120.665736"},{"type":"device","apeId":"device_1748","deviceName":"镜湖加油站门口朝西","latitude":"30.914697","longitude":"120.677052"},{"type":"device","apeId":"device_1749","deviceName":"如意路、盛东派出所门口","latitude":"30.915219","longitude":"120.658706"},{"type":"device","apeId":"device_1750","deviceName":"居士林门口","latitude":"30.894752","longitude":"120.654135"},{"type":"device","apeId":"device_1751","deviceName":"东方路、消防队门口","latitude":"30.909301","longitude":"120.657965"},{"type":"device","apeId":"device_1752","deviceName":"程开甲小学门口","latitude":"30.919546","longitude":"120.657525"},{"type":"device","apeId":"device_1753","deviceName":"前跃村六组新区舜洁水厂边","latitude":"30.907866","longitude":"120.687941"},{"type":"device","apeId":"device_1754","deviceName":"黄家溪大新超市处","latitude":"30.932585","longitude":"120.670648"},{"type":"device","apeId":"device_1755","deviceName":"盛泽桥北校区","latitude":"30.912433","longitude":"120.656528"},{"type":"device","apeId":"device_1756","deviceName":"镜湖公园停车场2","latitude":"30.918033","longitude":"120.669842"},{"type":"device","apeId":"device_1757","deviceName":"华生新村门口","latitude":"30.894352","longitude":"120.655738"},{"type":"device","apeId":"device_1758","deviceName":"幸福小区门口","latitude":"30.906629","longitude":"120.670647"}],"公安_人员卡口":[]}