{"社会面_车辆卡口":[{"type":"device","apeId":"device_3980","deviceName":"吴江汽车客运站设备","latitude":"31.141424","longitude":"120.670988"}],"公安_其他":[{"type":"device","apeId":"device_3981","deviceName":"吴江体育场","latitude":"31.129936","longitude":"120.649202"}],"公安_车辆卡口":[{"type":"device","apeId":"device_3982","deviceName":"西湖花苑北区A163-西湖花苑北区980号旁","latitude":"31.208077","longitude":"120.629097"},{"type":"device","apeId":"device_3983","deviceName":"西湖花苑北区A162-西湖花苑北区980号旁","latitude":"31.208315","longitude":"120.629018"},{"type":"device","apeId":"device_3984","deviceName":"西湖花苑北区A161-西湖花苑北区980号旁","latitude":"31.208315","longitude":"120.629018"},{"type":"device","apeId":"device_3985","deviceName":"西湖花苑北区A160-西湖花苑北区980号旁","latitude":"31.208315","longitude":"120.629018"},{"type":"device","apeId":"device_3986","deviceName":"西湖花苑北区A159-西湖花苑北区1017号旁","latitude":"31.208724","longitude":"120.628887"},{"type":"device","apeId":"device_3987","deviceName":"西湖花苑北区A158-西湖花苑北区1035号旁","latitude":"31.208724","longitude":"120.628887"},{"type":"device","apeId":"device_3988","deviceName":"西湖花苑北区A157-西湖花苑北区1052号旁","latitude":"31.208724","longitude":"120.628887"},{"type":"device","apeId":"device_3989","deviceName":"西湖花苑A156-西湖花苑北区1071号","latitude":"31.209132","longitude":"120.628712"},{"type":"device","apeId":"device_3990","deviceName":"西湖花苑北区A155-西湖花苑北区1091号旁","latitude":"31.209307","longitude":"120.628664"},{"type":"device","apeId":"device_3991","deviceName":"西湖花苑北区A154-西湖花苑北区1091号旁","latitude":"31.209307","longitude":"120.628664"},{"type":"device","apeId":"device_3992","deviceName":"西湖花苑北区A153-西湖花苑北区1091号旁","latitude":"31.209307","longitude":"120.628664"},{"type":"device","apeId":"device_3993","deviceName":"西湖花苑北区A152-西湖花苑北区1111号旁","latitude":"31.209522","longitude":"120.628579"},{"type":"device","apeId":"device_3994","deviceName":"西湖花苑北区A151-西湖花苑北区1132号旁","latitude":"31.209716","longitude":"120.628498"},{"type":"device","apeId":"device_3995","deviceName":"西湖花苑北区A150-西湖花苑北区1132号旁","latitude":"31.209932","longitude":"120.628513"},{"type":"device","apeId":"device_3996","deviceName":"西湖花苑北区A149-西湖花苑北区1132号旁","latitude":"31.209932","longitude":"120.628513"},{"type":"device","apeId":"device_3997","deviceName":"西湖花苑北区A145-西湖花苑北区990号旁","latitude":"31.207866","longitude":"120.627737"},{"type":"device","apeId":"device_3998","deviceName":"西湖花苑北区A144-西湖花苑北区990号旁","latitude":"31.207866","longitude":"120.627737"},{"type":"device","apeId":"device_3999","deviceName":"西湖花苑北区A143-西湖花苑北区990号旁","latitude":"31.207866","longitude":"120.627737"},{"type":"device","apeId":"device_4000","deviceName":"西湖花苑北区A142-西湖花苑北区1008号旁","latitude":"31.208283","longitude":"120.627591"},{"type":"device","apeId":"device_4001","deviceName":"西湖花苑北区A141-西湖花苑北区1026号旁","latitude":"31.208283","longitude":"120.627591"},{"type":"device","apeId":"device_4002","deviceName":"西湖花苑北区A140-西湖花苑北区1043号旁","latitude":"31.208283","longitude":"120.627591"},{"type":"device","apeId":"device_4003","deviceName":"西湖花苑北区A139-西湖花苑北区1061号旁","latitude":"31.208735","longitude":"120.627422"},{"type":"device","apeId":"device_4004","deviceName":"西湖花苑北区A138-西湖花苑北区1081号旁","latitude":"31.208912","longitude":"120.627326"},{"type":"device","apeId":"device_4005","deviceName":"西湖花苑A137-西湖花苑北区1081号","latitude":"31.208912","longitude":"120.627326"},{"type":"device","apeId":"device_4006","deviceName":"西湖花苑北区A136-西湖花苑北区1081号旁","latitude":"31.208912","longitude":"120.627326"},{"type":"device","apeId":"device_4007","deviceName":"西湖花苑北区A135-西湖花苑北区1101号旁","latitude":"31.209264","longitude":"120.627161"},{"type":"device","apeId":"device_4008","deviceName":"西湖花苑淞南区A134南-西湖花苑淞南区92号旁","latitude":"31.201071","longitude":"120.634566"},{"type":"device","apeId":"device_4009","deviceName":"西湖花苑淞南区A133北-西湖花苑淞南区92号旁","latitude":"31.201071","longitude":"120.634566"},{"type":"device","apeId":"device_4010","deviceName":"西湖花苑淞南区A132-西湖花苑淞南区1号旁","latitude":"31.200068","longitude":"120.636416"},{"type":"device","apeId":"device_4011","deviceName":"西湖花苑淞南区A131-西湖花苑淞南区1号旁","latitude":"31.200068","longitude":"120.636416"},{"type":"device","apeId":"device_4012","deviceName":"西湖花苑淞南区A130-西湖花苑淞南区10号旁","latitude":"31.200092","longitude":"120.636314"},{"type":"device","apeId":"device_4013","deviceName":"西湖花苑淞南区A129南-西湖花苑淞南区30号旁","latitude":"31.200444","longitude":"120.636263"},{"type":"device","apeId":"device_4014","deviceName":"西湖花苑淞南区A128西-西湖花苑淞南区30号旁","latitude":"31.200444","longitude":"120.636263"},{"type":"device","apeId":"device_4015","deviceName":"西湖花苑淞南区A127北-西湖花苑淞南区30号旁","latitude":"31.200444","longitude":"120.636263"},{"type":"device","apeId":"device_4016","deviceName":"西湖花苑淞南区A126-西湖花苑淞南区40号旁","latitude":"31.200886","longitude":"120.636123"},{"type":"device","apeId":"device_4017","deviceName":"西湖花苑淞南区A125-西湖花苑淞南区50号旁","latitude":"31.200886","longitude":"120.636123"},{"type":"device","apeId":"device_4018","deviceName":"西湖花苑淞南区A124-西湖花苑淞南区60号旁","latitude":"31.201288","longitude":"120.635947"},{"type":"device","apeId":"device_4019","deviceName":"西湖花苑淞南区A123-西湖花苑淞南区71号旁","latitude":"31.201288","longitude":"120.635947"},{"type":"device","apeId":"device_4020","deviceName":"西湖花苑淞南区A122南-西湖花苑淞南区82号旁","latitude":"31.201484","longitude":"120.635895"},{"type":"device","apeId":"device_4021","deviceName":"西湖花苑淞南区A121西-西湖花苑淞南区82号旁","latitude":"31.201484","longitude":"120.635895"},{"type":"device","apeId":"device_4022","deviceName":"西湖花苑淞南区A120北-西湖花苑淞南区82号旁","latitude":"31.201484","longitude":"120.635895"},{"type":"device","apeId":"device_4023","deviceName":"西湖花苑淞南区A119-西湖花苑淞南区93号旁","latitude":"31.201733","longitude":"120.635818"},{"type":"device","apeId":"device_4024","deviceName":"西湖花苑淞南区A118-西湖花苑淞南区105号旁","latitude":"31.201733","longitude":"120.635818"},{"type":"device","apeId":"device_4025","deviceName":"西湖花苑淞南区A117-西湖花苑淞南区105号旁","latitude":"31.202158","longitude":"120.635618"},{"type":"device","apeId":"device_4026","deviceName":"西湖花苑淞南区A116南-西湖花苑淞南区39号旁","latitude":"31.200312","longitude":"120.634917"},{"type":"device","apeId":"device_4027","deviceName":"西湖花苑淞南区A115北-西湖花苑淞南区39号旁","latitude":"31.200312","longitude":"120.634917"},{"type":"device","apeId":"device_4028","deviceName":"西湖花苑五区A114南-西湖花苑五区619号旁","latitude":"31.199918","longitude":"120.634315"},{"type":"device","apeId":"device_4029","deviceName":"西湖花苑五区A113北-西湖花苑五区619号旁","latitude":"31.199918","longitude":"120.634315"},{"type":"device","apeId":"device_4030","deviceName":"西湖花苑五区A112南-西湖花苑五区658号旁","latitude":"31.200788","longitude":"120.633927"},{"type":"device","apeId":"device_4031","deviceName":"西湖花苑五区A110-西湖花苑五区676号旁","latitude":"31.201421","longitude":"120.633643"},{"type":"device","apeId":"device_4032","deviceName":"西湖花苑五区A109南-西湖花苑五区632号旁","latitude":"31.199649","longitude":"120.633302"},{"type":"device","apeId":"device_4033","deviceName":"西湖花苑五区A108北-西湖花苑五区632号旁","latitude":"31.199649","longitude":"120.633302"},{"type":"device","apeId":"device_4034","deviceName":"西湖花苑五区A107南-西湖花苑五区666号旁","latitude":"31.200411","longitude":"120.632801"},{"type":"device","apeId":"device_4035","deviceName":"西湖花苑五区A106北-西湖花苑五区666号旁","latitude":"31.200411","longitude":"120.632801"},{"type":"device","apeId":"device_4036","deviceName":"西湖花苑五区A105-西湖花苑五区611号旁","latitude":"31.199308","longitude":"120.633538"},{"type":"device","apeId":"device_4037","deviceName":"西湖花苑五区A104-西湖花苑五区618号旁","latitude":"31.199308","longitude":"120.633538"},{"type":"device","apeId":"device_4038","deviceName":"西湖花苑五区A103-西湖花苑五区625号旁","latitude":"31.199308","longitude":"120.633538"},{"type":"device","apeId":"device_4039","deviceName":"西湖花苑五区A102东-西湖花苑五区632号旁","latitude":"31.199649","longitude":"120.633302"},{"type":"device","apeId":"device_4040","deviceName":"西湖花苑五区A101-西湖花苑五区640号旁","latitude":"31.200079","longitude":"120.633028"},{"type":"device","apeId":"device_4041","deviceName":"西湖花苑五区A100-西湖花苑五区648号旁","latitude":"31.200079","longitude":"120.633028"},{"type":"device","apeId":"device_4042","deviceName":"吴新村A478-中山北路883号东北角","latitude":"31.179829","longitude":"120.644023"},{"type":"device","apeId":"device_4043","deviceName":"吴新村A477-中山北路883号东南角","latitude":"31.177217","longitude":"120.644301"},{"type":"device","apeId":"device_4044","deviceName":"吴新村A476-中山北路883号前路口东南侧","latitude":"31.179311","longitude":"120.644226"},{"type":"device","apeId":"device_4045","deviceName":"吴新村A475-中山北路883号前路口东南侧","latitude":"31.178235","longitude":"120.644302"},{"type":"device","apeId":"device_4046","deviceName":"吴新村A474-中山北路816号西侧","latitude":"31.177217","longitude":"120.644301"},{"type":"device","apeId":"device_4047","deviceName":"吴新村A473-中山北路816号西侧","latitude":"31.177217","longitude":"120.644301"},{"type":"device","apeId":"device_4048","deviceName":"吴新村A472-中山北路816号西南侧","latitude":"31.176372","longitude":"120.644266"},{"type":"device","apeId":"device_4049","deviceName":"吴新村A471-明月心家园宾馆西北角","latitude":"31.175278","longitude":"120.644219"},{"type":"device","apeId":"device_4050","deviceName":"吴新村A469-明月心家园宾馆前路口西南侧","latitude":"31.174558","longitude":"120.644239"},{"type":"device","apeId":"device_4051","deviceName":"吴新村A468-明月心家园宾馆前路口西南侧","latitude":"31.174129","longitude":"120.644203"},{"type":"device","apeId":"device_4052","deviceName":"吴新村A467-吴江有线松陵分公司东北侧","latitude":"31.173279","longitude":"120.643861"},{"type":"device","apeId":"device_4053","deviceName":"吴新村A466-吴江有线松陵分公司东北侧","latitude":"31.173279","longitude":"120.643861"},{"type":"device","apeId":"device_4054","deviceName":"吴新村A465-吴江有线松陵分公司西侧","latitude":"31.172631","longitude":"120.643248"},{"type":"device","apeId":"device_4055","deviceName":"吴新村A464-木中小区7幢东北侧","latitude":"31.172611","longitude":"120.643122"},{"type":"device","apeId":"device_4056","deviceName":"吴新村A463-木中小区7幢东北侧","latitude":"31.172611","longitude":"120.643122"},{"type":"device","apeId":"device_4057","deviceName":"吴新村A462-渡江小区东门","latitude":"31.173721","longitude":"120.642027"},{"type":"device","apeId":"device_4058","deviceName":"吴新村A461-吴江有线松陵分公司西侧","latitude":"31.172593","longitude":"120.642731"},{"type":"device","apeId":"device_4059","deviceName":"吴新村A460-木中小区7幢北侧路口西北侧","latitude":"31.172645","longitude":"120.641811"},{"type":"device","apeId":"device_4060","deviceName":"吴新村A459-大华公寓东门","latitude":"31.173117","longitude":"120.641823"},{"type":"device","apeId":"device_4061","deviceName":"吴新村A458-大华公寓东门","latitude":"31.173272","longitude":"120.641893"},{"type":"device","apeId":"device_4062","deviceName":"吴新村A457-天和人家21幢东南侧","latitude":"31.177591","longitude":"120.639221"},{"type":"device","apeId":"device_4063","deviceName":"吴新村A456-天和人家21幢东南侧","latitude":"31.177591","longitude":"120.639221"},{"type":"device","apeId":"device_4064","deviceName":"吴新村A455-天和人家21幢东北侧","latitude":"31.174871","longitude":"120.638522"},{"type":"device","apeId":"device_4065","deviceName":"吴新村A454-天和人家21幢东北侧","latitude":"31.178019","longitude":"120.638616"},{"type":"device","apeId":"device_4066","deviceName":"吴新村A453-龙庭66号东侧","latitude":"31.175161","longitude":"120.639146"},{"type":"device","apeId":"device_4067","deviceName":"吴新村A452-龙庭66号东侧","latitude":"31.175161","longitude":"120.639146"},{"type":"device","apeId":"device_4068","deviceName":"吴新村A451-龙庭66号东侧","latitude":"31.175161","longitude":"120.639146"},{"type":"device","apeId":"device_4069","deviceName":"吴新村A450-龙庭锦绣18幢东北侧","latitude":"31.174871","longitude":"120.638522"},{"type":"device","apeId":"device_4070","deviceName":"吴新村A449-龙庭锦绣18幢东北侧","latitude":"31.174774","longitude":"120.638494"},{"type":"device","apeId":"device_4071","deviceName":"吴新村A448-油车小区北门江兴西路东北侧","latitude":"31.172436","longitude":"120.638213"},{"type":"device","apeId":"device_4072","deviceName":"吴新村A447-江兴西路建设银行旁","latitude":"31.172321","longitude":"120.636521"},{"type":"device","apeId":"device_4073","deviceName":"吴新村A446-江兴西路建设银行旁","latitude":"31.172321","longitude":"120.636521"},{"type":"device","apeId":"device_4074","deviceName":"吴新村A445-龙庭2号楼西南侧","latitude":"31.174504","longitude":"120.635611"},{"type":"device","apeId":"device_4075","deviceName":"吴新村A444-龙庭2号楼西南侧","latitude":"31.174473","longitude":"120.635599"},{"type":"device","apeId":"device_4076","deviceName":"吴新村A443-龙庭锦绣西侧可的便利店旁","latitude":"31.175777","longitude":"120.635703"},{"type":"device","apeId":"device_4077","deviceName":"吴新村A442-龙庭锦绣西侧可的便利店旁","latitude":"31.175777","longitude":"120.635703"},{"type":"device","apeId":"device_4078","deviceName":"吴新村A441-大江河路与西塘河路交叉处西北侧","latitude":"31.176345","longitude":"120.638474"},{"type":"device","apeId":"device_4079","deviceName":"吴新村A440-天和人家南门","latitude":"31.176567","longitude":"120.637442"},{"type":"device","apeId":"device_4080","deviceName":"吴新村A439-天和人家南门东侧","latitude":"31.176818","longitude":"120.636819"},{"type":"device","apeId":"device_4081","deviceName":"吴新村A438-天和人家22幢西南侧","latitude":"31.177762","longitude":"120.635741"},{"type":"device","apeId":"device_4082","deviceName":"吴新村A437-天和人家22幢西南侧","latitude":"31.177824","longitude":"120.635742"},{"type":"device","apeId":"device_4083","deviceName":"吴新村A436-天和人家22幢西北侧","latitude":"31.179601","longitude":"120.635729"},{"type":"device","apeId":"device_4084","deviceName":"吴新村A435-天和人家22幢西北侧","latitude":"31.179772","longitude":"120.635729"},{"type":"device","apeId":"device_4085","deviceName":"清树湾小区A22-清树湾小区171号西侧","latitude":"31.219241","longitude":"120.648612"},{"type":"device","apeId":"device_4086","deviceName":"清树湾小区A21-清树湾小区159号北侧","latitude":"31.218962","longitude":"120.646832"},{"type":"device","apeId":"device_4087","deviceName":"清树湾小区A20-清树湾小区169号西侧中山北路西侧","latitude":"31.218469","longitude":"120.644749"},{"type":"device","apeId":"device_4088","deviceName":"清树湾小区A19-清树湾小区25号西南侧","latitude":"31.217089","longitude":"120.645134"},{"type":"device","apeId":"device_4089","deviceName":"清树湾小区A17-清树湾小区28号东侧","latitude":"31.217791","longitude":"120.648916"},{"type":"device","apeId":"device_4090","deviceName":"清树湾小区A16-清树湾小区28号东侧","latitude":"31.217995","longitude":"120.648839"},{"type":"device","apeId":"device_4091","deviceName":"清树湾小区A15-清树湾小区77号东侧","latitude":"31.218203","longitude":"120.648815"},{"type":"device","apeId":"device_4092","deviceName":"清树湾小区A14-清树湾小区52号东侧","latitude":"31.218421","longitude":"120.648769"},{"type":"device","apeId":"device_4093","deviceName":"清树湾小区A12-清树湾小区125号东侧","latitude":"31.218848","longitude":"120.648716"},{"type":"device","apeId":"device_4094","deviceName":"清树湾小区A11-清树湾小区148号西侧","latitude":"31.219047","longitude":"120.648683"},{"type":"device","apeId":"device_4095","deviceName":"清树湾小区A10-清树湾小区13号西南侧","latitude":"31.217458","longitude":"120.647231"},{"type":"device","apeId":"device_4096","deviceName":"清树湾小区A09-清树湾小区15号东南侧","latitude":"31.217351","longitude":"120.646844"},{"type":"device","apeId":"device_4097","deviceName":"清树湾小区A08-清树湾小区25号西南侧","latitude":"31.217068","longitude":"120.645144"},{"type":"device","apeId":"device_4098","deviceName":"清树湾小区A07-清树湾小区49号西南侧","latitude":"31.217239","longitude":"120.645082"},{"type":"device","apeId":"device_4099","deviceName":"清树湾小区A06-清树湾小区49号西北侧","latitude":"31.217411","longitude":"120.645041"},{"type":"device","apeId":"device_4100","deviceName":"清树湾小区A05-清树湾小区98号西南侧","latitude":"31.217639","longitude":"120.644953"},{"type":"device","apeId":"device_4101","deviceName":"清树湾小区A04-清树湾小区98号西北侧","latitude":"31.217767","longitude":"120.644918"},{"type":"device","apeId":"device_4102","deviceName":"清树湾小区A03-清树湾小区145号西侧中山北路东侧","latitude":"31.218075","longitude":"120.644887"},{"type":"device","apeId":"device_4103","deviceName":"清树湾小区A02-清树湾小区168号西侧中山北路东侧","latitude":"31.218225","longitude":"120.644822"},{"type":"device","apeId":"device_4104","deviceName":"清树湾小区A01-清树湾小区168号西侧中山北路东侧","latitude":"31.218469","longitude":"120.644749"},{"type":"device","apeId":"device_4105","deviceName":"明珠城A434-明珠城紫桂苑东区西门1","latitude":"31.184317","longitude":"120.632976"},{"type":"device","apeId":"device_4106","deviceName":"明珠城A432-柳溪花园小区西门3","latitude":"31.184063","longitude":"120.635804"},{"type":"device","apeId":"device_4107","deviceName":"明珠城A431-柳溪花园小区西门2","latitude":"31.184063","longitude":"120.635804"},{"type":"device","apeId":"device_4108","deviceName":"明珠城A430-柳溪花园小区西门1","latitude":"31.184063","longitude":"120.635804"},{"type":"device","apeId":"device_4109","deviceName":"明珠城A429-实验小学明珠学校北侧","latitude":"31.183528","longitude":"120.635432"},{"type":"device","apeId":"device_4110","deviceName":"明珠城A428-实验小学明珠学校北侧","latitude":"31.183528","longitude":"120.635432"},{"type":"device","apeId":"device_4111","deviceName":"明珠城A427-实验小学明珠学校西南角","latitude":"31.181702","longitude":"120.633828"},{"type":"device","apeId":"device_4112","deviceName":"明珠城A426-实验小学明珠学校西南角","latitude":"31.181702","longitude":"120.633828"},{"type":"device","apeId":"device_4113","deviceName":"明珠城A424-江陵西路鲈乡北路西南角","latitude":"31.179322","longitude":"120.635394"},{"type":"device","apeId":"device_4114","deviceName":"明珠城A423-英派斯健身南侧","latitude":"31.181524","longitude":"120.632215"},{"type":"device","apeId":"device_4115","deviceName":"明珠城A422-英派斯健身南侧","latitude":"31.181524","longitude":"120.632215"},{"type":"device","apeId":"device_4116","deviceName":"明珠城A421-英派斯健身十字路口西北角","latitude":"31.181381","longitude":"120.630851"},{"type":"device","apeId":"device_4117","deviceName":"明珠城A420-英派斯健身十字路口西北角","latitude":"31.181341","longitude":"120.630832"},{"type":"device","apeId":"device_4118","deviceName":"明珠城A419-英派斯健身十字路口西北角","latitude":"31.181341","longitude":"120.630832"},{"type":"device","apeId":"device_4119","deviceName":"明珠城A418-英派斯健身北侧","latitude":"31.182291","longitude":"120.630792"},{"type":"device","apeId":"device_4120","deviceName":"明珠城A417-明珠城马塞苑东侧","latitude":"31.182271","longitude":"120.631081"},{"type":"device","apeId":"device_4121","deviceName":"明珠城A416-明珠城紫桂苑西区西门","latitude":"31.183507","longitude":"120.630872"},{"type":"device","apeId":"device_4122","deviceName":"明珠城A415-明珠城商业街南侧","latitude":"31.181189","longitude":"120.628461"},{"type":"device","apeId":"device_4123","deviceName":"明珠城A414-明珠城商业街南侧","latitude":"31.181189","longitude":"120.628461"},{"type":"device","apeId":"device_4124","deviceName":"明珠城A413-明珠城商业街南侧","latitude":"31.181193","longitude":"120.628676"},{"type":"device","apeId":"device_4125","deviceName":"明珠城A412-明珠城商业街南侧","latitude":"31.181193","longitude":"120.628676"},{"type":"device","apeId":"device_4126","deviceName":"明珠城A411-明珠城望湖苑1号门","latitude":"31.181153","longitude":"120.626936"},{"type":"device","apeId":"device_4127","deviceName":"明珠城A410-明珠城望湖苑1号门西侧","latitude":"31.181138","longitude":"120.627016"},{"type":"device","apeId":"device_4128","deviceName":"明珠城A409-江陵西路鲈乡北路西南角","latitude":"31.179725","longitude":"120.635472"},{"type":"device","apeId":"device_4129","deviceName":"明珠城A407-明珠城米兰苑南门1号门","latitude":"31.181698","longitude":"120.625699"},{"type":"device","apeId":"device_4130","deviceName":"明珠城A406-明珠城望湖苑1号门西侧路口","latitude":"31.181551","longitude":"120.625834"},{"type":"device","apeId":"device_4131","deviceName":"明珠城A405-明珠城米兰苑南门2号门","latitude":"31.182887","longitude":"120.626091"},{"type":"device","apeId":"device_4132","deviceName":"明珠城A404-明珠城米兰苑7号旁","latitude":"31.182902","longitude":"120.626028"},{"type":"device","apeId":"device_4133","deviceName":"明珠城A403-明珠城罗马苑东南门2","latitude":"31.183855","longitude":"120.626474"},{"type":"device","apeId":"device_4134","deviceName":"明珠城A402-明珠城罗马苑东南门1","latitude":"31.183855","longitude":"120.626474"},{"type":"device","apeId":"device_4135","deviceName":"明珠城A401-明珠城米兰苑东北角十字路口","latitude":"31.183721","longitude":"120.626584"},{"type":"device","apeId":"device_4136","deviceName":"明珠城A400-明珠城米兰苑东北角十字路口","latitude":"31.183721","longitude":"120.626584"},{"type":"device","apeId":"device_4137","deviceName":"明珠城A398-明珠城望湖苑3号门","latitude":"31.182041","longitude":"120.624395"},{"type":"device","apeId":"device_4138","deviceName":"明珠城A397-明珠城望湖苑西门","latitude":"31.181869","longitude":"120.624629"},{"type":"device","apeId":"device_4139","deviceName":"明珠城A396-明珠城望湖苑西门","latitude":"31.181869","longitude":"120.624629"},{"type":"device","apeId":"device_4140","deviceName":"明珠城A395-明珠城望湖苑西门","latitude":"31.182776","longitude":"120.623785"},{"type":"device","apeId":"device_4141","deviceName":"明珠城A394-明珠城望湖苑西门","latitude":"31.183394","longitude":"120.624108"},{"type":"device","apeId":"device_4142","deviceName":"明珠城A392-明珠城米兰苑西北角路口","latitude":"31.184236","longitude":"120.625159"},{"type":"device","apeId":"device_4143","deviceName":"明珠城A391-明珠城罗马苑2号门南","latitude":"31.184928","longitude":"120.627317"},{"type":"device","apeId":"device_4144","deviceName":"明珠城A390-明珠城罗马苑2号门北四叉路口","latitude":"31.185723","longitude":"120.628041"},{"type":"device","apeId":"device_4145","deviceName":"明珠城A389-明珠城罗马苑2号门北1","latitude":"31.185693","longitude":"120.627784"},{"type":"device","apeId":"device_4146","deviceName":"明珠城A388-明珠城罗马苑东北角十字路口","latitude":"31.185708","longitude":"120.627833"},{"type":"device","apeId":"device_4147","deviceName":"明珠城A387-明珠城雅典苑东门","latitude":"31.184247","longitude":"120.630609"},{"type":"device","apeId":"device_4148","deviceName":"明珠城A386-柳胥路明珠城郁金香公园南侧","latitude":"31.185154","longitude":"120.630071"},{"type":"device","apeId":"device_4149","deviceName":"明珠城A384-明珠城紫桂苑东区西门2","latitude":"31.184159","longitude":"120.632891"},{"type":"device","apeId":"device_4150","deviceName":"明珠城A382-明珠城紫桂苑西区北门3","latitude":"31.185535","longitude":"120.631691"},{"type":"device","apeId":"device_4151","deviceName":"明珠城A381-明珠城紫桂苑西区北门2","latitude":"31.185535","longitude":"120.631691"},{"type":"device","apeId":"device_4152","deviceName":"明珠城A380-明珠城紫桂苑西区北门1","latitude":"31.185535","longitude":"120.631691"},{"type":"device","apeId":"device_4153","deviceName":"明珠城A379-明珠城紫桂苑东区西北角3","latitude":"31.185933","longitude":"120.632602"},{"type":"device","apeId":"device_4154","deviceName":"明珠城A378-明珠城紫桂苑东区西北角2","latitude":"31.185933","longitude":"120.632602"},{"type":"device","apeId":"device_4155","deviceName":"明珠城A377-明珠城紫桂苑东区西北角1","latitude":"31.185933","longitude":"120.632602"},{"type":"device","apeId":"device_4156","deviceName":"明珠城A375-明珠城紫桂苑东区北侧3","latitude":"31.186213","longitude":"120.633205"},{"type":"device","apeId":"device_4157","deviceName":"明珠城A374-明珠城聆湖苑西区南门","latitude":"31.187004","longitude":"120.633842"},{"type":"device","apeId":"device_4158","deviceName":"明珠城A373-明珠城紫桂苑东区北侧2","latitude":"31.186588","longitude":"120.633456"},{"type":"device","apeId":"device_4159","deviceName":"明珠城A372-明珠城紫桂苑东区北侧1","latitude":"31.186588","longitude":"120.633456"},{"type":"device","apeId":"device_4160","deviceName":"明珠城A371-明珠城紫桂苑东区北门","latitude":"31.186807","longitude":"120.634473"},{"type":"device","apeId":"device_4161","deviceName":"明珠城A370-柳胥路鲈乡北路路口2","latitude":"31.187119","longitude":"120.636025"},{"type":"device","apeId":"device_4162","deviceName":"明珠城A369-柳胥路鲈乡北路路口1","latitude":"31.187119","longitude":"120.636025"},{"type":"device","apeId":"device_4163","deviceName":"明珠城A368-柳溪花园小区北门2","latitude":"31.186721","longitude":"120.637242"},{"type":"device","apeId":"device_4164","deviceName":"明珠城A367-柳溪花园小区北门1","latitude":"31.186829","longitude":"120.637295"},{"type":"device","apeId":"device_4165","deviceName":"江兴路周边A500-江兴西路528号1幢西南侧","latitude":"31.172053","longitude":"120.632321"},{"type":"device","apeId":"device_4166","deviceName":"江兴路周边A499-江兴西路北星弄交叉处东北侧","latitude":"31.172094","longitude":"120.632991"},{"type":"device","apeId":"device_4167","deviceName":"江兴路周边A498-江兴西路北星弄交叉处东北侧","latitude":"31.172104","longitude":"120.632995"},{"type":"device","apeId":"device_4168","deviceName":"江兴路周边A497-吴越领秀南门东侧","latitude":"31.171984","longitude":"120.627481"},{"type":"device","apeId":"device_4169","deviceName":"江兴路周边A496-仲英大道江兴西路交叉处东北","latitude":"31.172106","longitude":"120.628776"},{"type":"device","apeId":"device_4170","deviceName":"江兴路周边A495-鲈乡花园南门","latitude":"31.171997","longitude":"120.631223"},{"type":"device","apeId":"device_4171","deviceName":"江兴路周边A494-吴越祥院2幢西南侧","latitude":"31.171901","longitude":"120.628831"},{"type":"device","apeId":"device_4172","deviceName":"江兴路周边A493-吴越祥院5幢西","latitude":"31.172631","longitude":"120.628619"},{"type":"device","apeId":"device_4173","deviceName":"江兴路周边A492-仲英大道大江河路交叉处东南侧","latitude":"31.177466","longitude":"120.628774"},{"type":"device","apeId":"device_4174","deviceName":"江兴路周边A491-仲英大道大江河路交叉处东南侧","latitude":"31.177466","longitude":"120.628774"},{"type":"device","apeId":"device_4175","deviceName":"江兴路周边A490-仲英大道大江河路交叉处东北侧","latitude":"31.177592","longitude":"120.628936"},{"type":"device","apeId":"device_4176","deviceName":"江兴路周边A489-江陵西路吴江上海城侧","latitude":"31.178637","longitude":"120.628974"},{"type":"device","apeId":"device_4177","deviceName":"江兴路周边A488-江陵西路吴江上海城侧","latitude":"31.178707","longitude":"120.628906"},{"type":"device","apeId":"device_4178","deviceName":"江兴路周边A487-丽湾国际东","latitude":"31.1782801","longitude":"120.628439"},{"type":"device","apeId":"device_4179","deviceName":"江兴路周边A486-松陵交通运输管理所仲英大道西侧","latitude":"31.177373","longitude":"120.628409"},{"type":"device","apeId":"device_4180","deviceName":"江兴路周边A485-新华辰大酒店东北侧","latitude":"31.174346","longitude":"120.628332"},{"type":"device","apeId":"device_4181","deviceName":"江兴路周边A484-新华辰大酒店东南侧","latitude":"31.172943","longitude":"120.628255"},{"type":"device","apeId":"device_4182","deviceName":"江兴路周边A483-吴越领秀南门西侧","latitude":"31.171871","longitude":"120.623711"},{"type":"device","apeId":"device_4183","deviceName":"江兴路周边A482-吴越领秀南门东","latitude":"31.171998","longitude":"120.627925"},{"type":"device","apeId":"device_4184","deviceName":"江兴路周边A481-吴越尚院东侧门面房北侧","latitude":"31.173015","longitude":"120.623246"},{"type":"device","apeId":"device_4185","deviceName":"江兴路周边A480-吴越尚院南门东","latitude":"31.171874","longitude":"120.622965"},{"type":"device","apeId":"device_4186","deviceName":"江兴路周边A479-吴越尚院南门西","latitude":"31.171953","longitude":"120.621287"},{"type":"device","apeId":"device_4187","deviceName":"花港西片店面A329-联中路与中山北路交叉口西南侧","latitude":"31.210871","longitude":"120.644448"},{"type":"device","apeId":"device_4188","deviceName":"花港西片店面A328-联中路与中山北路交叉口西南侧","latitude":"31.210871","longitude":"120.644448"},{"type":"device","apeId":"device_4189","deviceName":"花港西片店面A326-中山北路裕荣酒行东南侧","latitude":"31.210267","longitude":"120.644496"},{"type":"device","apeId":"device_4190","deviceName":"花港西片店面A325-中山北路裕荣酒行东南侧","latitude":"31.210267","longitude":"120.644496"},{"type":"device","apeId":"device_4191","deviceName":"花港西片店面A324-中山北路一品地锅东北侧","latitude":"31.210281","longitude":"120.644541"},{"type":"device","apeId":"device_4192","deviceName":"花港西片店面A323-中山北路徐峰口腔诊所西侧","latitude":"31.209856","longitude":"120.644936"},{"type":"device","apeId":"device_4193","deviceName":"花港西片店面A322-中山北路川府骨头煲东侧","latitude":"31.209417","longitude":"120.644493"},{"type":"device","apeId":"device_4194","deviceName":"花港西片店面A321-中山北路川府骨头煲东侧","latitude":"31.209417","longitude":"120.644493"},{"type":"device","apeId":"device_4195","deviceName":"花港西片店面A320-中山北路川府骨头煲东侧","latitude":"31.209417","longitude":"120.644493"},{"type":"device","apeId":"device_4196","deviceName":"花港西片店面A319-中山北路公交站台旁监控","latitude":"31.208987","longitude":"120.644484"},{"type":"device","apeId":"device_4197","deviceName":"花港西片店面A318-中山北路公交站台旁监控","latitude":"31.208987","longitude":"120.644484"},{"type":"device","apeId":"device_4198","deviceName":"花港西片店面A317-中山北路公交站台旁监控","latitude":"31.208987","longitude":"120.644484"},{"type":"device","apeId":"device_4199","deviceName":"花港西片店面A316-花港路与中山北路十字路口西南侧","latitude":"31.208325","longitude":"120.644461"},{"type":"device","apeId":"device_4200","deviceName":"花港西片店面A315-花港路与中山北路十字路口西南侧","latitude":"31.208325","longitude":"120.644461"},{"type":"device","apeId":"device_4201","deviceName":"花港西片店面A314-花港路中国体育彩票西南侧","latitude":"31.208311","longitude":"120.643589"},{"type":"device","apeId":"device_4202","deviceName":"花港西片店面A313-花港路中国体育彩票西南侧","latitude":"31.208311","longitude":"120.643589"},{"type":"device","apeId":"device_4203","deviceName":"花港西片店面A312-花港路胖厨川菜西南侧","latitude":"31.208325","longitude":"120.643033"},{"type":"device","apeId":"device_4204","deviceName":"花港西片店面A311-花港路胖厨川菜西南侧","latitude":"31.208325","longitude":"120.643033"},{"type":"device","apeId":"device_4205","deviceName":"花港西片店面A310-花港路新大洲电动车东南侧","latitude":"31.208292","longitude":"120.642428"},{"type":"device","apeId":"device_4206","deviceName":"花港西片店面A309-花港路都市华联超市西南侧","latitude":"31.208274","longitude":"120.641846"},{"type":"device","apeId":"device_4207","deviceName":"花港东片A305-阿董私房菜东南侧","latitude":"31.208318","longitude":"120.648367"},{"type":"device","apeId":"device_4208","deviceName":"花港东片A304-阿董私房菜东北侧","latitude":"31.208915","longitude":"120.648473"},{"type":"device","apeId":"device_4209","deviceName":"花港东片A303-阿董私房菜东北侧","latitude":"31.208888","longitude":"120.648018"},{"type":"device","apeId":"device_4210","deviceName":"花港东片A302-阿董私房菜西南侧","latitude":"31.208306","longitude":"120.647479"},{"type":"device","apeId":"device_4211","deviceName":"花港东片A301-阿董私房菜西南侧","latitude":"31.208295","longitude":"120.647446"},{"type":"device","apeId":"device_4212","deviceName":"花港东片A300-阿董私房菜西北侧","latitude":"31.208898","longitude":"120.647527"},{"type":"device","apeId":"device_4213","deviceName":"花港东片A299-阿董私房菜西北侧","latitude":"31.208898","longitude":"120.647527"},{"type":"device","apeId":"device_4214","deviceName":"花港东片A298-花港路599号东南侧","latitude":"31.208305","longitude":"120.646897"},{"type":"device","apeId":"device_4215","deviceName":"花港东片A297-花港路599号东南侧","latitude":"31.208305","longitude":"120.646897"},{"type":"device","apeId":"device_4216","deviceName":"花港东片A296-花港路599号东南侧","latitude":"31.208305","longitude":"120.646897"},{"type":"device","apeId":"device_4217","deviceName":"花港东片A295-花港路599号东北侧","latitude":"31.208936","longitude":"120.646977"},{"type":"device","apeId":"device_4218","deviceName":"花港东片A294-花港路599号西南侧","latitude":"31.208341","longitude":"120.646466"},{"type":"device","apeId":"device_4219","deviceName":"花港东片A293-花港路599号西南侧","latitude":"31.208341","longitude":"120.646466"},{"type":"device","apeId":"device_4220","deviceName":"花港东片A292-花港路599号西北侧","latitude":"31.208924","longitude":"120.646485"},{"type":"device","apeId":"device_4221","deviceName":"花港东片A291-花港路650号南侧东","latitude":"31.208237","longitude":"120.646161"},{"type":"device","apeId":"device_4222","deviceName":"花港东片A290-花港路650号南","latitude":"31.208266","longitude":"120.645698"},{"type":"device","apeId":"device_4223","deviceName":"花港东片A289-花港路650号南","latitude":"31.208266","longitude":"120.645698"},{"type":"device","apeId":"device_4224","deviceName":"花港东片A288-中山北路2553号东南侧","latitude":"31.208285","longitude":"120.644979"},{"type":"device","apeId":"device_4225","deviceName":"花港东片A287-中山北路2552号东南侧","latitude":"31.208285","longitude":"120.644979"},{"type":"device","apeId":"device_4226","deviceName":"花港东片A286中山北路2552号西北侧","latitude":"31.208845","longitude":"120.644997"},{"type":"device","apeId":"device_4227","deviceName":"花港东片A285-中山北路2552号西北侧","latitude":"31.208845","longitude":"120.644997"},{"type":"device","apeId":"device_4228","deviceName":"花港东片A284-中山北路2583号西南侧","latitude":"31.209472","longitude":"120.645016"},{"type":"device","apeId":"device_4229","deviceName":"花港东片A283-中山北路2583号西南侧","latitude":"31.209472","longitude":"120.645016"},{"type":"device","apeId":"device_4230","deviceName":"花港东片A282-中山北路2582号西南侧","latitude":"31.209472","longitude":"120.645016"},{"type":"device","apeId":"device_4231","deviceName":"花港东片A281-中山北路2583号西北侧","latitude":"31.210199","longitude":"120.644998"},{"type":"device","apeId":"device_4232","deviceName":"花港东片A280-中山北路2582号西北侧","latitude":"31.210199","longitude":"120.644998"},{"type":"device","apeId":"device_4233","deviceName":"红树湾小区A237-清树湾站5号口东侧","latitude":"31.223313","longitude":"120.628972"},{"type":"device","apeId":"device_4234","deviceName":"红树湾小区A236-清树湾站5号口西侧","latitude":"31.223297","longitude":"120.628667"},{"type":"device","apeId":"device_4235","deviceName":"红树湾小区A235-红树湾小区南门","latitude":"31.223271","longitude":"120.631161"},{"type":"device","apeId":"device_4236","deviceName":"红树湾小区A234-鲈乡北路杨湾路路口","latitude":"31.223296","longitude":"120.633172"},{"type":"device","apeId":"device_4237","deviceName":"红树湾小区A233-香漫雅园小区西门","latitude":"31.225027","longitude":"120.633287"},{"type":"device","apeId":"device_4238","deviceName":"红树湾小区A232-香漫雅园小区北门","latitude":"31.225979","longitude":"120.634238"},{"type":"device","apeId":"device_4239","deviceName":"红树湾小区A231-兴吴路1199号旁2","latitude":"31.225751","longitude":"120.632195"},{"type":"device","apeId":"device_4240","deviceName":"红树湾小区A230-兴吴路1199号旁1","latitude":"31.225751","longitude":"120.632195"},{"type":"device","apeId":"device_4241","deviceName":"红树湾小区A229-兴吴路1243号旁2","latitude":"31.225696","longitude":"120.631271"},{"type":"device","apeId":"device_4242","deviceName":"红树湾小区A228-兴吴路1243号旁1","latitude":"31.225696","longitude":"120.631271"},{"type":"device","apeId":"device_4243","deviceName":"红树湾小区A227-兴吴路1295号旁2","latitude":"31.225641","longitude":"120.630193"},{"type":"device","apeId":"device_4244","deviceName":"红树湾小区A226-兴吴路1295号旁1","latitude":"31.225641","longitude":"120.630193"},{"type":"device","apeId":"device_4245","deviceName":"红树湾小区A225-兴吴路1349号旁","latitude":"31.225653","longitude":"120.628771"},{"type":"device","apeId":"device_4246","deviceName":"亨通厂附近A366-九龙路亨通厂东门1","latitude":"31.200559","longitude":"120.650039"},{"type":"device","apeId":"device_4247","deviceName":"亨通厂附近A365-九龙路亨通厂东门1","latitude":"31.200559","longitude":"120.650039"},{"type":"device","apeId":"device_4248","deviceName":"亨通厂附近A364-古塘路九龙路路口2","latitude":"31.202107","longitude":"120.650029"},{"type":"device","apeId":"device_4249","deviceName":"亨通厂附近A363-古塘路九龙路路口1","latitude":"31.202107","longitude":"120.650029"},{"type":"device","apeId":"device_4250","deviceName":"亨通厂附近A362-古塘路飞旭厂南门","latitude":"31.202251","longitude":"120.648873"},{"type":"device","apeId":"device_4251","deviceName":"亨通厂附近A360-古塘路亚帝欧南门","latitude":"31.202252","longitude":"120.646471"},{"type":"device","apeId":"device_4252","deviceName":"亨通厂附近A359-中山北路巨丰电子厂西门","latitude":"31.199648","longitude":"120.644628"},{"type":"device","apeId":"device_4253","deviceName":"亨通厂附近A358-中山北路亨通厂西门2","latitude":"31.200603","longitude":"120.644702"},{"type":"device","apeId":"device_4254","deviceName":"524国道天宏印染北侧A327-524国道天宏印染北侧","latitude":"31.195761","longitude":"120.658089"}],"公安_人员卡口":[{"type":"device","apeId":"device_4255","deviceName":"东太湖生态园","latitude":"31.154674","longitude":"120.603384"}]}