{"社会面_车辆卡口":[],"公安_其他":[],"公安_车辆卡口":[{"type":"device","apeId":"device_1945","deviceName":"S230省道-诚心村东","latitude":"31.077052","longitude":"120.580836"},{"type":"device","apeId":"device_1946","deviceName":"S230省道-诚心村南","latitude":"31.076734","longitude":"120.580861"},{"type":"device","apeId":"device_1947","deviceName":"S230省道-诚心村西","latitude":"31.076769","longitude":"120.580654"},{"type":"device","apeId":"device_1948","deviceName":"S230省道-叶家港北","latitude":"31.019129","longitude":"120.508596"},{"type":"device","apeId":"device_1949","deviceName":"S230省道-叶家港东","latitude":"31.019139","longitude":"120.508778"},{"type":"device","apeId":"device_1950","deviceName":"S230省道-叶家港南","latitude":"31.019064","longitude":"120.508725"},{"type":"device","apeId":"device_1951","deviceName":"S230省道-叶家港西","latitude":"31.018986","longitude":"120.508499"},{"type":"device","apeId":"device_1952","deviceName":"S230省道-诚心村北","latitude":"31.078801","longitude":"120.583887"},{"type":"device","apeId":"device_1953","deviceName":"菀坪建设银行东","latitude":"31.068948","longitude":"120.600542"},{"type":"device","apeId":"device_1954","deviceName":"菀坪贝斯特舞厅","latitude":"31.072928","longitude":"120.599526"},{"type":"device","apeId":"device_1955","deviceName":"菀坪农村商业银行","latitude":"31.068707","longitude":"120.596994"}],"公安_人员卡口":[]}