{"社会面_车辆卡口":[],"公安_其他":[],"公安_车辆卡口":[{"type":"device","apeId":"device_2907","deviceName":"金家坝镇兴宜村庀金田监控","latitude":"31.098994","longitude":"120.761371"},{"type":"device","apeId":"device_2908","deviceName":"金家坝镇蚬南村与常嘉高速交界处监控","latitude":"31.114255","longitude":"120.816481"},{"type":"device","apeId":"device_2909","deviceName":"金家坝镇金周公路临沪钢构厂西桥口","latitude":"31.113618","longitude":"120.813171"},{"type":"device","apeId":"device_2910","deviceName":"金家坝汽车站东门监控","latitude":"31.100707","longitude":"120.778346"},{"type":"device","apeId":"device_2911","deviceName":"金家坝镇梅石村牌田圩村口监控","latitude":"31.087819","longitude":"120.752662"},{"type":"device","apeId":"device_2912","deviceName":"金家坝周湖线星谊村九曲港东路口","latitude":"31.120442","longitude":"120.766171"},{"type":"device","apeId":"device_2913","deviceName":"金家坝周湖线星谊村九曲港中间路口","latitude":"31.120464","longitude":"120.762349"},{"type":"device","apeId":"device_2914","deviceName":"金家坝银杏村小里港村道","latitude":"31.088221","longitude":"120.733073"},{"type":"device","apeId":"device_2915","deviceName":"金家坝蚬南村高速公路便道","latitude":"31.114222","longitude":"120.816061"},{"type":"device","apeId":"device_2916","deviceName":"戴家港入口监控","latitude":"31.075163","longitude":"120.761788"},{"type":"device","apeId":"device_2917","deviceName":"跃进村村委会屋后监控","latitude":"31.095446","longitude":"120.787956"},{"type":"device","apeId":"device_2918","deviceName":"幸二三叉路口监控","latitude":"31.122264","longitude":"120.789598"},{"type":"device","apeId":"device_2919","deviceName":"跃进村西村西北角监控","latitude":"31.099463","longitude":"120.784925"},{"type":"device","apeId":"device_2920","deviceName":"金厍路兄卯路口监控","latitude":"31.109883","longitude":"120.794424"},{"type":"device","apeId":"device_2921","deviceName":"金周路黄泥浜路口监控","latitude":"31.115947","longitude":"120.799861"},{"type":"device","apeId":"device_2922","deviceName":"金莘路双鼎板业东路口监控","latitude":"31.078268","longitude":"120.807387"},{"type":"device","apeId":"device_2923","deviceName":"燕浜村入口监控","latitude":"31.097128","longitude":"120.791128"},{"type":"device","apeId":"device_2924","deviceName":"金长路南仰仙路口东方向监控","latitude":"31.085553","longitude":"120.794449"},{"type":"device","apeId":"device_2925","deviceName":"金长路南仰仙路口西方向监控","latitude":"31.085553","longitude":"120.794449"},{"type":"device","apeId":"device_2926","deviceName":"雪巷村泵站南监控","latitude":"31.123171","longitude":"120.798169"},{"type":"device","apeId":"device_2927","deviceName":"雪巷村断头浜东路口监控","latitude":"31.120567","longitude":"120.798591"},{"type":"device","apeId":"device_2928","deviceName":"大潮村白荡头监控","latitude":"31.117872","longitude":"120.774374"},{"type":"device","apeId":"device_2929","deviceName":"舍上桥北监控","latitude":"31.076101","longitude":"120.786955"},{"type":"device","apeId":"device_2930","deviceName":"天辅厂后路口监控","latitude":"31.113733","longitude":"120.789106"},{"type":"device","apeId":"device_2931","deviceName":"直下港北桥西监控","latitude":"31.115034","longitude":"120.783709"},{"type":"device","apeId":"device_2932","deviceName":"长巨村东鱼塘西路口监控","latitude":"31.085527","longitude":"120.808201"},{"type":"device","apeId":"device_2933","deviceName":"舍上桥南监控","latitude":"31.075841","longitude":"120.786836"},{"type":"device","apeId":"device_2934","deviceName":"黄泥浜北监控","latitude":"31.116951","longitude":"120.804178"},{"type":"device","apeId":"device_2935","deviceName":"雪巷村村委会东监控","latitude":"31.117323","longitude":"120.794142"},{"type":"device","apeId":"device_2936","deviceName":"傍字村南路口监控","latitude":"31.079843","longitude":"120.789016"},{"type":"device","apeId":"device_2937","deviceName":"金杭路360号101室对面监控","latitude":"31.090051","longitude":"120.769186"},{"type":"device","apeId":"device_2938","deviceName":"西轸辉煌商店南监控","latitude":"31.080884","longitude":"120.798161"},{"type":"device","apeId":"device_2939","deviceName":"跃进村村委东路口监控","latitude":"31.094872","longitude":"120.789691"},{"type":"device","apeId":"device_2940","deviceName":"西村南路中段东路口监控","latitude":"31.097475","longitude":"120.786041"},{"type":"device","apeId":"device_2941","deviceName":"西村南路中段监控","latitude":"31.097504","longitude":"120.785837"},{"type":"device","apeId":"device_2942","deviceName":"跃进村南厅监控","latitude":"31.098916","longitude":"120.789402"},{"type":"device","apeId":"device_2943","deviceName":"白荡头H03线路监控","latitude":"31.120849","longitude":"120.773268"},{"type":"device","apeId":"device_2944","deviceName":"南河浜南三叉路口监控","latitude":"31.123368","longitude":"120.773348"},{"type":"device","apeId":"device_2945","deviceName":"袁家浜湖边东路口监控","latitude":"31.069661","longitude":"120.785827"},{"type":"device","apeId":"device_2946","deviceName":"西村南路中段西监控","latitude":"31.097811","longitude":"120.785131"},{"type":"device","apeId":"device_2947","deviceName":"西轸村小桥旁监控","latitude":"31.080884","longitude":"120.798161"},{"type":"device","apeId":"device_2948","deviceName":"跃进村森力净化门口监控","latitude":"31.096004","longitude":"120.786297"},{"type":"device","apeId":"device_2949","deviceName":"旭诚保温厂旁路口监控","latitude":"31.100978","longitude":"120.781214"},{"type":"device","apeId":"device_2950","deviceName":"雪巷村林森厂东监控","latitude":"31.117952","longitude":"120.792182"},{"type":"device","apeId":"device_2951","deviceName":"群众村村委会西路口监控","latitude":"31.097553","longitude":"120.796488"},{"type":"device","apeId":"device_2952","deviceName":"鑫吴集团西三叉路口监控","latitude":"31.121541","longitude":"120.783013"},{"type":"device","apeId":"device_2953","deviceName":"傍字村北路口监控","latitude":"31.081891","longitude":"120.788468"},{"type":"device","apeId":"device_2954","deviceName":"长巨桥旁监控","latitude":"31.084026","longitude":"120.805643"},{"type":"device","apeId":"device_2955","deviceName":"渔业村小店门口北方向监控","latitude":"31.102491","longitude":"120.783851"},{"type":"device","apeId":"device_2956","deviceName":"群众村同字路口西方向监控","latitude":"31.104739","longitude":"120.796638"},{"type":"device","apeId":"device_2957","deviceName":"白荡头十字路口监控","latitude":"31.114533","longitude":"120.776902"},{"type":"device","apeId":"device_2958","deviceName":"南河浜停车场监控","latitude":"31.125992","longitude":"120.773638"},{"type":"device","apeId":"device_2959","deviceName":"直下港世纪华联路口监控","latitude":"31.112923","longitude":"120.781448"},{"type":"device","apeId":"device_2960","deviceName":"双石村三叉路口西方向监控","latitude":"31.107794","longitude":"120.746307"},{"type":"device","apeId":"device_2961","deviceName":"石前村中小桥监控","latitude":"31.078301","longitude":"120.760377"},{"type":"device","apeId":"device_2962","deviceName":"沈庄村东小桥监控","latitude":"31.070081","longitude":"120.811861"},{"type":"device","apeId":"device_2963","deviceName":"沈庄村老年活动室屋后监控","latitude":"31.070723","longitude":"120.811427"},{"type":"device","apeId":"device_2964","deviceName":"金厍路北卯村路口监控","latitude":"31.112131","longitude":"120.794565"},{"type":"device","apeId":"device_2965","deviceName":"雪巷村断头浜西路口监控","latitude":"31.121075","longitude":"120.797432"},{"type":"device","apeId":"device_2966","deviceName":"南河浜南入口监控","latitude":"31.122749","longitude":"120.773259"},{"type":"device","apeId":"device_2967","deviceName":"直下港昌乐超市路口北监控","latitude":"31.114728","longitude":"120.784783"},{"type":"device","apeId":"device_2968","deviceName":"直下港北桥东路口南方向监控","latitude":"31.114956","longitude":"120.784027"},{"type":"device","apeId":"device_2969","deviceName":"直下港南桥西监控","latitude":"31.112643","longitude":"120.781981"},{"type":"device","apeId":"device_2970","deviceName":"直下港南桥东监控","latitude":"31.112527","longitude":"120.782273"},{"type":"device","apeId":"device_2971","deviceName":"金厍路北卯桥东监控","latitude":"31.111481","longitude":"120.795723"},{"type":"device","apeId":"device_2972","deviceName":"雪巷村白蚬湖饭店北监控","latitude":"31.117727","longitude":"120.799244"},{"type":"device","apeId":"device_2973","deviceName":"雪巷村白蚬湖饭店路口监控","latitude":"31.115996","longitude":"120.798428"},{"type":"device","apeId":"device_2974","deviceName":"金周路金信厂东监控","latitude":"31.116317","longitude":"120.796048"},{"type":"device","apeId":"device_2975","deviceName":"金周路金信厂后监控","latitude":"31.116197","longitude":"120.794272"},{"type":"device","apeId":"device_2976","deviceName":"雪巷村木箱厂后叉路口监控","latitude":"31.121951","longitude":"120.795578"},{"type":"device","apeId":"device_2977","deviceName":"雪巷村林森厂北监控","latitude":"31.121575","longitude":"120.795054"},{"type":"device","apeId":"device_2978","deviceName":"孙家港停车场监控","latitude":"31.122553","longitude":"120.788096"},{"type":"device","apeId":"device_2979","deviceName":"群众村同字路口南方向监控","latitude":"31.104739","longitude":"120.796638"},{"type":"device","apeId":"device_2980","deviceName":"同字村毅腾电子厂东监控","latitude":"31.104337","longitude":"120.798431"},{"type":"device","apeId":"device_2981","deviceName":"群众村同字路口北方向监控","latitude":"31.105025","longitude":"120.796521"},{"type":"device","apeId":"device_2982","deviceName":"大潮村菜场旁监控","latitude":"31.101685","longitude":"120.778661"},{"type":"device","apeId":"device_2983","deviceName":"大潮村菜场路口北监控","latitude":"31.101747","longitude":"120.778657"},{"type":"device","apeId":"device_2984","deviceName":"沈庄村西小桥监控","latitude":"31.070819","longitude":"120.810981"},{"type":"device","apeId":"device_2985","deviceName":"西轸村公共厕所叉路口监控","latitude":"31.081301","longitude":"120.797644"},{"type":"device","apeId":"device_2986","deviceName":"西轸村鑫科灯具门口监控","latitude":"31.081863","longitude":"120.797147"},{"type":"device","apeId":"device_2987","deviceName":"幸二三叉路口北监控","latitude":"31.123515","longitude":"120.790491"},{"type":"device","apeId":"device_2988","deviceName":"孙家港桥东路口监控","latitude":"31.119957","longitude":"120.788058"},{"type":"device","apeId":"device_2989","deviceName":"燕浜村西路口南监控","latitude":"31.096603","longitude":"120.789471"},{"type":"device","apeId":"device_2990","deviceName":"燕浜村西路口北监控","latitude":"31.097571","longitude":"120.790046"},{"type":"device","apeId":"device_2991","deviceName":"管家浜入口监控","latitude":"31.132051","longitude":"120.773365"},{"type":"device","apeId":"device_2992","deviceName":"大潮村村委旁叉路口监控","latitude":"31.127236","longitude":"120.777696"},{"type":"device","apeId":"device_2993","deviceName":"直下港昌乐超市东路口监控","latitude":"31.114367","longitude":"120.784795"},{"type":"device","apeId":"device_2994","deviceName":"大潮村菜场南监控","latitude":"31.101265","longitude":"120.778389"},{"type":"device","apeId":"device_2995","deviceName":"长巨村健身点监控","latitude":"31.090061","longitude":"120.806649"},{"type":"device","apeId":"device_2996","deviceName":"长巨村停车场监控","latitude":"31.088561","longitude":"120.806313"},{"type":"device","apeId":"device_2997","deviceName":"长巨村小桥旁监控","latitude":"31.087141","longitude":"120.806526"},{"type":"device","apeId":"device_2998","deviceName":"西轸村宏镁板业路口监控","latitude":"31.083536","longitude":"120.794973"},{"type":"device","apeId":"device_2999","deviceName":"金长路恩光净化门口监控","latitude":"31.086771","longitude":"120.790564"},{"type":"device","apeId":"device_3000","deviceName":"金长路永恒扁钢厂叉路口监控","latitude":"31.089262","longitude":"120.787761"},{"type":"device","apeId":"device_3001","deviceName":"金长路好又多超市监控","latitude":"31.089866","longitude":"120.787271"},{"type":"device","apeId":"device_3002","deviceName":"跃进村10组桥北监控","latitude":"31.095491","longitude":"120.791169"},{"type":"device","apeId":"device_3003","deviceName":"跃进村西村金厍路路口监控","latitude":"31.097289","longitude":"120.786544"},{"type":"device","apeId":"device_3004","deviceName":"西村南路西叉路口监控","latitude":"31.098105","longitude":"120.784308"},{"type":"device","apeId":"device_3005","deviceName":"西村南金贤路北监控","latitude":"31.097353","longitude":"120.783769"},{"type":"device","apeId":"device_3006","deviceName":"跃进村西村北监控","latitude":"31.099231","longitude":"120.786051"},{"type":"device","apeId":"device_3007","deviceName":"跃进村北仰仙北路口监控","latitude":"31.092131","longitude":"120.794525"},{"type":"device","apeId":"device_3008","deviceName":"跃进村北仰仙村口监控","latitude":"31.091183","longitude":"120.794638"},{"type":"device","apeId":"device_3009","deviceName":"明信净化厂后监控","latitude":"31.102995","longitude":"120.784619"},{"type":"device","apeId":"device_3010","deviceName":"明信净化旁三叉路口南方向监控","latitude":"31.103322","longitude":"120.784164"},{"type":"device","apeId":"device_3011","deviceName":"明信净化旁三叉路口西方向监控","latitude":"31.103322","longitude":"120.784164"},{"type":"device","apeId":"device_3012","deviceName":"西蒲塘欣荣烟杂店监控","latitude":"31.110697","longitude":"120.813612"},{"type":"device","apeId":"device_3013","deviceName":"蚬南村健身点西路口监控","latitude":"31.111392","longitude":"120.813825"},{"type":"device","apeId":"device_3014","deviceName":"西蒲塘临泸厂对面监控","latitude":"31.112601","longitude":"120.813549"},{"type":"device","apeId":"device_3015","deviceName":"红五星农家乐南路口监控","latitude":"31.110923","longitude":"120.811203"},{"type":"device","apeId":"device_3016","deviceName":"金周路福华净化厂后监控","latitude":"31.112714","longitude":"120.805975"},{"type":"device","apeId":"device_3017","deviceName":"燕浜鱼塘西北路段监控","latitude":"31.098194","longitude":"120.791952"},{"type":"device","apeId":"device_3018","deviceName":"燕浜怀字桥监控","latitude":"31.100006","longitude":"120.795065"},{"type":"device","apeId":"device_3019","deviceName":"燕浜鱼塘北路口监控","latitude":"31.099075","longitude":"120.795032"},{"type":"device","apeId":"device_3020","deviceName":"燕浜鱼塘东路中段监控","latitude":"31.098169","longitude":"120.794921"},{"type":"device","apeId":"device_3021","deviceName":"燕浜鱼塘南路口监控","latitude":"31.096993","longitude":"120.793331"},{"type":"device","apeId":"device_3022","deviceName":"东洋村西鱼塘北路口监控","latitude":"31.096602","longitude":"120.799928"},{"type":"device","apeId":"device_3023","deviceName":"东洋村西鱼塘南路口监控","latitude":"31.094332","longitude":"120.799961"},{"type":"device","apeId":"device_3024","deviceName":"东洋村东鱼塘北路口监控","latitude":"31.096836","longitude":"120.801392"},{"type":"device","apeId":"device_3025","deviceName":"东洋村东鱼塘中段路口监控","latitude":"31.094673","longitude":"120.801977"},{"type":"device","apeId":"device_3026","deviceName":"东洋村东鱼塘中段三叉路口监控","latitude":"31.093314","longitude":"120.801931"},{"type":"device","apeId":"device_3027","deviceName":"东洋村东鱼塘南路口监控","latitude":"31.092078","longitude":"120.801831"},{"type":"device","apeId":"device_3028","deviceName":"金长路三叉路口监控","latitude":"31.086612","longitude":"120.798566"},{"type":"device","apeId":"device_3029","deviceName":"群众村花仁港桥南路口监控","latitude":"31.090774","longitude":"120.797853"},{"type":"device","apeId":"device_3030","deviceName":"群众村怀字健身点监控","latitude":"31.100761","longitude":"120.795161"},{"type":"device","apeId":"device_3031","deviceName":"金盛路大定净化对过监控","latitude":"31.103023","longitude":"120.779434"},{"type":"device","apeId":"device_3032","deviceName":"金家庄111号监控","latitude":"31.103528","longitude":"120.779497"},{"type":"device","apeId":"device_3033","deviceName":"金盛路金盛汽配旁监控","latitude":"31.103768","longitude":"120.779976"},{"type":"device","apeId":"device_3034","deviceName":"金盛路隆源灯具门口监控","latitude":"31.104842","longitude":"120.780657"},{"type":"device","apeId":"device_3035","deviceName":"金盛路徐荣净化路口北方向监控","latitude":"31.105036","longitude":"120.780965"},{"type":"device","apeId":"device_3036","deviceName":"金盛路徐荣净化路口西方向监控","latitude":"31.105036","longitude":"120.780965"},{"type":"device","apeId":"device_3037","deviceName":"金舍桥东监控","latitude":"31.077816","longitude":"120.788556"},{"type":"device","apeId":"device_3038","deviceName":"金舍桥西监控","latitude":"31.077921","longitude":"120.788122"},{"type":"device","apeId":"device_3039","deviceName":"埭上村东头监控","latitude":"31.073998","longitude":"120.790835"},{"type":"device","apeId":"device_3040","deviceName":"金谊路与金潮路路口西监控","latitude":"31.102635","longitude":"120.770382"},{"type":"device","apeId":"device_3041","deviceName":"金谊路与金潮路路口东监控","latitude":"31.102425","longitude":"120.770595"},{"type":"device","apeId":"device_3042","deviceName":"金康路红旗山站台监控","latitude":"31.091812","longitude":"120.770078"},{"type":"device","apeId":"device_3043","deviceName":"金长路南浜入口监控","latitude":"31.085886","longitude":"120.805685"},{"type":"device","apeId":"device_3044","deviceName":"北湾桥西路口监控","latitude":"31.085316","longitude":"120.807065"},{"type":"device","apeId":"device_3045","deviceName":"长巨村东鱼塘东路口监控","latitude":"31.085385","longitude":"120.809165"},{"type":"device","apeId":"device_3046","deviceName":"长巨村南路口监控","latitude":"31.081675","longitude":"120.809191"},{"type":"device","apeId":"device_3047","deviceName":"沈庄村停车场监控","latitude":"31.071067","longitude":"120.810516"},{"type":"device","apeId":"device_3048","deviceName":"金莘路三家村桥西监控","latitude":"31.077917","longitude":"120.809467"},{"type":"device","apeId":"device_3049","deviceName":"长胜村村委屋后监控","latitude":"31.074448","longitude":"120.808072"},{"type":"device","apeId":"device_3050","deviceName":"长胜村村委西路口监控","latitude":"31.074443","longitude":"120.807011"},{"type":"device","apeId":"device_3051","deviceName":"长胜村村委南路口监控","latitude":"31.073191","longitude":"120.807036"},{"type":"device","apeId":"device_3052","deviceName":"长胜村入口监控","latitude":"31.074772","longitude":"120.803928"},{"type":"device","apeId":"device_3053","deviceName":"渔业村小店门口南方向监控","latitude":"31.102525","longitude":"120.783884"},{"type":"device","apeId":"device_3054","deviceName":"渔业村东渔船旁监控","latitude":"31.102637","longitude":"120.784789"},{"type":"device","apeId":"device_3055","deviceName":"生益净化厂门口监控","latitude":"31.103669","longitude":"120.782236"},{"type":"device","apeId":"device_3056","deviceName":"海德净化厂门口监控","latitude":"31.101823","longitude":"120.781601"},{"type":"device","apeId":"device_3057","deviceName":"渔业村入口监控","latitude":"31.101492","longitude":"120.779592"},{"type":"device","apeId":"device_3058","deviceName":"蚬南村委西路口方向南监控","latitude":"31.112241","longitude":"120.801732"},{"type":"device","apeId":"device_3059","deviceName":"蚬南村委西路口方向北监控","latitude":"31.112241","longitude":"120.801732"},{"type":"device","apeId":"device_3060","deviceName":"怀字南路口监控","latitude":"31.098491","longitude":"120.796503"},{"type":"device","apeId":"device_3061","deviceName":"群众村怀字停车场监控","latitude":"31.097221","longitude":"120.799514"},{"type":"device","apeId":"device_3062","deviceName":"群众村花仁港桥北监控","latitude":"31.092323","longitude":"120.797545"},{"type":"device","apeId":"device_3063","deviceName":"群众村怀字南路口监控","latitude":"31.094651","longitude":"120.797437"},{"type":"device","apeId":"device_3064","deviceName":"群众村村委会东路口监控","latitude":"31.097383","longitude":"120.797441"},{"type":"device","apeId":"device_3065","deviceName":"怀字村十字路口监控","latitude":"31.101037","longitude":"120.797129"},{"type":"device","apeId":"device_3066","deviceName":"同字村东公交站台监控","latitude":"31.104114","longitude":"120.800681"},{"type":"device","apeId":"device_3067","deviceName":"九曲港北路口监控","latitude":"31.117637","longitude":"120.762629"},{"type":"device","apeId":"device_3068","deviceName":"戴家港牌田路口监控","latitude":"31.077004","longitude":"120.758479"},{"type":"device","apeId":"device_3069","deviceName":"杨家村入口监控","latitude":"31.112774","longitude":"120.761195"},{"type":"device","apeId":"device_3070","deviceName":"褚家埂入口到底监控","latitude":"31.098165","longitude":"120.712385"},{"type":"device","apeId":"device_3071","deviceName":"傍字村南路东到底监控","latitude":"31.079074","longitude":"120.791342"},{"type":"device","apeId":"device_3072","deviceName":"金莘路厍上入口监控","latitude":"31.077584","longitude":"120.788791"},{"type":"device","apeId":"device_3073","deviceName":"鼎鑫冷热缩路口监控","latitude":"31.078364","longitude":"120.787222"},{"type":"device","apeId":"device_3074","deviceName":"新钢村村委会路口监控","latitude":"31.078397","longitude":"120.785602"},{"type":"device","apeId":"device_3075","deviceName":"袁家浜湖边西路口监控","latitude":"31.069924","longitude":"120.785232"},{"type":"device","apeId":"device_3076","deviceName":"袁家浜停车场南路口监控","latitude":"31.070371","longitude":"120.786025"},{"type":"device","apeId":"device_3077","deviceName":"袁家浜停车场监控","latitude":"31.070766","longitude":"120.785923"},{"type":"device","apeId":"device_3078","deviceName":"新生轧钢厂监控","latitude":"31.076869","longitude":"120.783522"},{"type":"device","apeId":"device_3079","deviceName":"傍字村北路东到底监控","latitude":"31.080669","longitude":"120.791454"},{"type":"device","apeId":"device_3080","deviceName":"傍字村入口监控","latitude":"31.082142","longitude":"120.787569"},{"type":"device","apeId":"device_3081","deviceName":"傍字路小桥监控","latitude":"31.082875","longitude":"120.785695"},{"type":"device","apeId":"device_3082","deviceName":"隆鑫轧钢厂后监控","latitude":"31.082391","longitude":"120.784336"},{"type":"device","apeId":"device_3083","deviceName":"新钢村菜场入口南方向监控","latitude":"31.079116","longitude":"120.783641"},{"type":"device","apeId":"device_3084","deviceName":"新钢村菜场入口北方向监控","latitude":"31.079116","longitude":"120.783641"},{"type":"device","apeId":"device_3085","deviceName":"小南圩桥南方向监控","latitude":"31.088825","longitude":"120.727596"},{"type":"device","apeId":"device_3086","deviceName":"小里港桥监控","latitude":"31.086438","longitude":"120.734788"},{"type":"device","apeId":"device_3087","deviceName":"银杏村高速路口监控","latitude":"31.083151","longitude":"120.743183"},{"type":"device","apeId":"device_3088","deviceName":"双石村三叉路口东方向监控","latitude":"31.107794","longitude":"120.746307"},{"type":"device","apeId":"device_3089","deviceName":"沃华环境科技公司西路口监控","latitude":"31.105023","longitude":"120.766365"},{"type":"device","apeId":"device_3090","deviceName":"方家浜拆迁小区中间路口监控","latitude":"31.095614","longitude":"120.769063"},{"type":"device","apeId":"device_3091","deviceName":"方家浜拆迁小区幼儿园南路口监控","latitude":"31.097044","longitude":"120.768175"},{"type":"device","apeId":"device_3092","deviceName":"金康路桥东北路口监控","latitude":"31.090295","longitude":"120.775268"},{"type":"device","apeId":"device_3093","deviceName":"北圩停车场监控","latitude":"31.094472","longitude":"120.727479"},{"type":"device","apeId":"device_3094","deviceName":"北圩水闸桥监控","latitude":"31.093786","longitude":"120.730822"},{"type":"device","apeId":"device_3095","deviceName":"北圩叉路口监控","latitude":"31.093714","longitude":"120.729197"},{"type":"device","apeId":"device_3096","deviceName":"北亭鱼塘监控","latitude":"31.096855","longitude":"120.718824"},{"type":"device","apeId":"device_3097","deviceName":"褚家埂入口监控","latitude":"31.095901","longitude":"120.718398"},{"type":"device","apeId":"device_3098","deviceName":"西湾里小桥西监控","latitude":"31.093765","longitude":"120.719094"},{"type":"device","apeId":"device_3099","deviceName":"北亭停车场监控","latitude":"31.094154","longitude":"120.721212"},{"type":"device","apeId":"device_3100","deviceName":"杭头村北亭路口监控","latitude":"31.093035","longitude":"120.721745"},{"type":"device","apeId":"device_3101","deviceName":"苏同黎杭头桥监控","latitude":"31.092492","longitude":"120.723645"},{"type":"device","apeId":"device_3102","deviceName":"小里港鱼塘三叉口监控","latitude":"31.088779","longitude":"120.731903"},{"type":"device","apeId":"device_3103","deviceName":"银杏村村委会西监控","latitude":"31.086882","longitude":"120.732231"},{"type":"device","apeId":"device_3104","deviceName":"红兵苗场南路口监控","latitude":"31.088188","longitude":"120.733195"},{"type":"device","apeId":"device_3105","deviceName":"银杏村委会后河边路口监控","latitude":"31.087373","longitude":"120.733389"},{"type":"device","apeId":"device_3106","deviceName":"小里港石牌路口监控","latitude":"31.085208","longitude":"120.733888"},{"type":"device","apeId":"device_3107","deviceName":"小里港东路口监控","latitude":"31.082824","longitude":"120.738814"},{"type":"device","apeId":"device_3108","deviceName":"银杏村吴家浜小桥监控","latitude":"31.085513","longitude":"120.739068"},{"type":"device","apeId":"device_3109","deviceName":"基督教堂路口监控","latitude":"31.080518","longitude":"120.745412"},{"type":"device","apeId":"device_3110","deviceName":"杨家村西南路口监控","latitude":"31.113295","longitude":"120.754712"},{"type":"device","apeId":"device_3111","deviceName":"杨家村北路口监控","latitude":"31.114526","longitude":"120.756313"},{"type":"device","apeId":"device_3112","deviceName":"杨家村桥东监控","latitude":"31.113265","longitude":"120.760241"},{"type":"device","apeId":"device_3113","deviceName":"九曲港与周湖线交叉口监控","latitude":"31.120391","longitude":"120.760542"},{"type":"device","apeId":"device_3114","deviceName":"星谊村三家村路口监控","latitude":"31.118575","longitude":"120.761233"},{"type":"device","apeId":"device_3115","deviceName":"九曲港石碑处监控","latitude":"31.114056","longitude":"120.762117"},{"type":"device","apeId":"device_3116","deviceName":"星谊村梨园监控","latitude":"31.109313","longitude":"120.764912"},{"type":"device","apeId":"device_3117","deviceName":"星谊村梨园路口监控","latitude":"31.109178","longitude":"120.767229"},{"type":"device","apeId":"device_3118","deviceName":"星谊村九曲港中段路口监控","latitude":"31.119156","longitude":"120.762571"},{"type":"device","apeId":"device_3119","deviceName":"星谊村九曲港南入口监控","latitude":"31.116853","longitude":"120.763808"},{"type":"device","apeId":"device_3120","deviceName":"星谊村村委会北路口监控","latitude":"31.116886","longitude":"120.766934"},{"type":"device","apeId":"device_3121","deviceName":"星谊村村委会门口监控","latitude":"31.114301","longitude":"120.767103"},{"type":"device","apeId":"device_3122","deviceName":"半片村委会南路口西方向监控","latitude":"31.113536","longitude":"120.767081"},{"type":"device","apeId":"device_3123","deviceName":"半片村委会南路口东方向监控","latitude":"31.113536","longitude":"120.767081"},{"type":"device","apeId":"device_3124","deviceName":"半片港老年活动室路口监控","latitude":"31.109966","longitude":"120.770155"},{"type":"device","apeId":"device_3125","deviceName":"半片港中段监控","latitude":"31.108956","longitude":"120.770651"},{"type":"device","apeId":"device_3126","deviceName":"半片港南路口监控","latitude":"31.106665","longitude":"120.770872"},{"type":"device","apeId":"device_3127","deviceName":"双石村停车场监控","latitude":"31.107344","longitude":"120.748791"},{"type":"device","apeId":"device_3128","deviceName":"星谊村转址浜路口监控","latitude":"31.106362","longitude":"120.752071"},{"type":"device","apeId":"device_3129","deviceName":"星谊村油车港2#-1-2#电杆旁监控","latitude":"31.102182","longitude":"120.751607"},{"type":"device","apeId":"device_3130","deviceName":"星谊村北陛路口监控","latitude":"31.100959","longitude":"120.757841"},{"type":"device","apeId":"device_3131","deviceName":"星谊村叉金田路口南方向监控","latitude":"31.101015","longitude":"120.762269"},{"type":"device","apeId":"device_3132","deviceName":"星谊村叉金田路口东方向监控","latitude":"31.101015","longitude":"120.762269"},{"type":"device","apeId":"device_3133","deviceName":"新钢村老年活动室南路口监控","latitude":"31.076761","longitude":"120.785428"},{"type":"device","apeId":"device_3134","deviceName":"埭上村十字路口监控","latitude":"31.075043","longitude":"120.786524"},{"type":"device","apeId":"device_3135","deviceName":"金杭路小桥监控","latitude":"31.083504","longitude":"120.764118"},{"type":"device","apeId":"device_3136","deviceName":"沃华环境科技公司东路口监控","latitude":"31.104312","longitude":"120.768187"},{"type":"device","apeId":"device_3137","deviceName":"红旗村中浜入口监控","latitude":"31.098913","longitude":"120.769158"},{"type":"device","apeId":"device_3138","deviceName":"金潮南路幼儿园西路口监控","latitude":"31.097255","longitude":"120.768403"},{"type":"device","apeId":"device_3139","deviceName":"金潮南路富豪石材厂路口监控","latitude":"31.097044","longitude":"120.768175"},{"type":"device","apeId":"device_3140","deviceName":"方家浜拆迁小区兄弟石材南监控","latitude":"31.094004","longitude":"120.768379"},{"type":"device","apeId":"device_3141","deviceName":"方家浜西入口监控","latitude":"31.092939","longitude":"120.766427"},{"type":"device","apeId":"device_3142","deviceName":"方家浜公共厕所东监控","latitude":"31.090721","longitude":"120.767571"},{"type":"device","apeId":"device_3143","deviceName":"金康路菜场路口对面监控","latitude":"31.090428","longitude":"120.774123"},{"type":"device","apeId":"device_3144","deviceName":"金康路菜场路口监控","latitude":"31.090818","longitude":"120.774051"},{"type":"device","apeId":"device_3145","deviceName":"金康路桥西北路口监控","latitude":"31.090581","longitude":"120.775038"},{"type":"device","apeId":"device_3146","deviceName":"金康路桥东南路口监控","latitude":"31.090411","longitude":"120.775269"},{"type":"device","apeId":"device_3147","deviceName":"金家坝村路口监控","latitude":"31.089931","longitude":"120.775861"},{"type":"device","apeId":"device_3148","deviceName":"贺家浜桥北监控","latitude":"31.085586","longitude":"120.778008"},{"type":"device","apeId":"device_3149","deviceName":"单笔港9#-2#出线电杆监控","latitude":"31.086334","longitude":"120.778191"},{"type":"device","apeId":"device_3150","deviceName":"石前村东小桥监控","latitude":"31.077373","longitude":"120.762904"},{"type":"device","apeId":"device_3151","deviceName":"石前村入口监控","latitude":"31.077112","longitude":"120.763453"},{"type":"device","apeId":"device_3152","deviceName":"梅家栅入口监控","latitude":"31.079928","longitude":"120.749996"},{"type":"device","apeId":"device_3153","deviceName":"宏昌净化厂西监控","latitude":"31.079739","longitude":"120.753531"},{"type":"device","apeId":"device_3154","deviceName":"金家坝金鑫东路18号.小博士","latitude":"31.094269","longitude":"120.780221"},{"type":"device","apeId":"device_3155","deviceName":"金家坝金湖路.杨文头","latitude":"31.069229","longitude":"120.799789"},{"type":"device","apeId":"device_3156","deviceName":"金家坝农贸市场","latitude":"31.0935601","longitude":"120.775014"},{"type":"device","apeId":"device_3157","deviceName":"金家坝茅山堂","latitude":"31.085171","longitude":"120.753597"},{"type":"device","apeId":"device_3158","deviceName":"苏州市合兴食品有限公司","latitude":"31.076676","longitude":"120.777624"}],"公安_人员卡口":[]}